{
    "name": "Australia",
    "alpha-2": "AU",
    "alpha-3": "AUS",
    "country-code": "036",
    "region": "Oceania",
    "ISO3166-2": [
        {
            "code": "AU-NSW",
            "name": "New South Wales",
            "division": "state",
            "parent": "AU",
            "lat": -31.2532183,
            "lng": 146.92109900000003
        },
        {
            "code": "AU-QLD",
            "name": "Queensland",
            "division": "state",
            "parent": "AU",
            "lat": -20.9175738,
            "lng": 142.70279559999994
        },
        {
            "code": "AU-SA",
            "name": "South Australia",
            "division": "state",
            "parent": "AU",
            "lat": -30.0002315,
            "lng": 136.2091547
        },
        {
            "code": "AU-TAS",
            "name": "Tasmania",
            "division": "state",
            "parent": "AU",
            "lat": -41.3650419,
            "lng": 146.6284905
        },
        {
            "code": "AU-VIC",
            "name": "Victoria",
            "division": "state",
            "parent": "AU",
            "lat": -37.4713077,
            "lng": 144.7851531
        },
        {
            "code": "AU-WA",
            "name": "Western Australia",
            "division": "state",
            "parent": "AU",
            "lat": -27.6728168,
            "lng": 121.62830980000001
        },
        {
            "code": "AU-ACT",
            "name": "Australian Capital Territory",
            "division": "territory",
            "parent": "AU",
            "lat": -35.4734679,
            "lng": 149.01236789999996
        },
        {
            "code": "AU-NT",
            "name": "Northern Territory",
            "division": "territory",
            "parent": "AU",
            "lat": -19.4914108,
            "lng": 132.55096030000004
        }
    ]
}