{
    "name": "Azerbaijan",
    "alpha-2": "AZ",
    "alpha-3": "AZE",
    "country-code": "031",
    "region": "Asia",
    "ISO3166-2": [
        {
            "code": "AZ-AB",
            "name": "\u018fli Bayraml\u0131",
            "division": "city",
            "parent": "AZ",
            "lat": 39.9319444,
            "lng": 48.92027780000001
        },
        {
            "code": "AZ-BA",
            "name": "Bak\u0131",
            "division": "city",
            "parent": "AZ",
            "lat": 40.3952778,
            "lng": 49.8822222
        },
        {
            "code": "AZ-GA",
            "name": "G\u0259nc\u0259",
            "division": "city",
            "parent": "AZ",
            "lat": 40.6827778,
            "lng": 46.3605556
        },
        {
            "code": "AZ-LA",
            "name": "L\u0259nk\u0259ran",
            "division": "city",
            "parent": "AZ",
            "lat": 38.7536111,
            "lng": 48.851111100000026
        },
        {
            "code": "AZ-MI",
            "name": "Ming\u0259\u00e7evir",
            "division": "city",
            "parent": "AZ",
            "lat": 40.9317152,
            "lng": 46.78328710000005
        },
        {
            "code": "AZ-NA",
            "name": "Naftalan",
            "division": "city",
            "parent": "AZ",
            "lat": 40.5068501,
            "lng": 46.81935049999993
        },
        {
            "code": "AZ-SA",
            "name": "\u015e\u0259ki",
            "division": "city",
            "parent": "AZ",
            "lat": 41.2,
            "lng": 47.16666669999995
        },
        {
            "code": "AZ-SM",
            "name": "Sumqay\u0131t",
            "division": "city",
            "parent": "AZ",
            "lat": 40.5722351,
            "lng": 49.67565360000003
        },
        {
            "code": "AZ-SS",
            "name": "\u015eu\u015fa",
            "division": "city",
            "parent": "AZ",
            "lat": 39.7537438,
            "lng": 46.746475499999974
        },
        {
            "code": "AZ-XA",
            "name": "Xank\u0259ndi",
            "division": "city",
            "parent": "AZ"
        },
        {
            "code": "AZ-YE",
            "name": "Yevlax",
            "division": "city",
            "parent": "AZ",
            "lat": 40.6172222,
            "lng": 47.14999999999998
        },
        {
            "code": "AZ-ABS",
            "name": "Ab\u015feron",
            "division": "rayon",
            "parent": "AZ"
        },
        {
            "code": "AZ-AGC",
            "name": "A\u011fcab\u0259di",
            "division": "rayon",
            "parent": "AZ",
            "lat": 40.0527778,
            "lng": 47.461388899999974
        },
        {
            "code": "AZ-AGM",
            "name": "A\u011fdam",
            "division": "rayon",
            "parent": "AZ",
            "lat": 39.9930556,
            "lng": 46.930555599999934
        },
        {
            "code": "AZ-AGS",
            "name": "A\u011fda\u015f",
            "division": "rayon",
            "parent": "AZ",
            "lat": 33.3740873,
            "lng": -81.97357210000001
        },
        {
            "code": "AZ-AGA",
            "name": "A\u011fstafa",
            "division": "rayon",
            "parent": "AZ",
            "lat": 41.1188889,
            "lng": 45.45388890000004
        },
        {
            "code": "AZ-AGU",
            "name": "A\u011fsu",
            "division": "rayon",
            "parent": "AZ"
        },
        {
            "code": "AZ-AST",
            "name": "Astara",
            "division": "rayon",
            "parent": "AZ",
            "lat": 38.42577,
            "lng": 48.85931000000005
        },
        {
            "code": "AZ-BAB",
            "name": "Bab\u0259k",
            "division": "rayon",
            "parent": "AZ NX"
        },
        {
            "code": "AZ-BAL",
            "name": "Balak\u0259n",
            "division": "rayon",
            "parent": "AZ",
            "lat": 41.7258333,
            "lng": 46.40833329999998
        },
        {
            "code": "AZ-BAR",
            "name": "B\u0259rd\u0259",
            "division": "rayon",
            "parent": "AZ",
            "lat": 40.3744444,
            "lng": 47.12666669999999
        },
        {
            "code": "AZ-BEY",
            "name": "Beyl\u0259qan",
            "division": "rayon",
            "parent": "AZ",
            "lat": 39.7755556,
            "lng": 47.61861109999995
        },
        {
            "code": "AZ-BIL",
            "name": "Bil\u0259suvar",
            "division": "rayon",
            "parent": "AZ",
            "lat": 39.4583333,
            "lng": 48.54500000000007
        },
        {
            "code": "AZ-CAB",
            "name": "C\u0259bray\u0131l",
            "division": "rayon",
            "parent": "AZ",
            "lat": 39.4,
            "lng": 47.02611109999998
        },
        {
            "code": "AZ-CAL",
            "name": "C\u0259lilabab",
            "division": "rayon",
            "parent": "AZ"
        },
        {
            "code": "AZ-CUL",
            "name": "Culfa",
            "division": "rayon",
            "parent": "AZ NX"
        },
        {
            "code": "AZ-DAS",
            "name": "Da\u015fk\u0259s\u0259n",
            "division": "rayon",
            "parent": "AZ",
            "lat": 40.4606171,
            "lng": 46.07121929999994
        },
        {
            "code": "AZ-DAV",
            "name": "D\u0259v\u0259\u00e7i",
            "division": "rayon",
            "parent": "AZ",
            "lat": 41.2113889,
            "lng": 48.98611110000002
        },
        {
            "code": "AZ-FUZ",
            "name": "F\u00fczuli",
            "division": "rayon",
            "parent": "AZ",
            "lat": 39.6002778,
            "lng": 47.143055600000025
        },
        {
            "code": "AZ-GAD",
            "name": "G\u0259d\u0259b\u0259y",
            "division": "rayon",
            "parent": "AZ",
            "lat": 40.5655556,
            "lng": 45.816111099999944
        },
        {
            "code": "AZ-GOR",
            "name": "Goranboy",
            "division": "rayon",
            "parent": "AZ",
            "lat": 40.6102778,
            "lng": 46.78972220000003
        },
        {
            "code": "AZ-GOY",
            "name": "G\u00f6y\u00e7ay",
            "division": "rayon",
            "parent": "AZ",
            "lat": 40.6530556,
            "lng": 47.74055559999999
        },
        {
            "code": "AZ-HAC",
            "name": "Hac\u0131qabul",
            "division": "rayon",
            "parent": "AZ"
        },
        {
            "code": "AZ-IMI",
            "name": "\u0130mi\u015fli",
            "division": "rayon",
            "parent": "AZ",
            "lat": 39.8697222,
            "lng": 48.059999999999945
        },
        {
            "code": "AZ-ISM",
            "name": "\u0130smay\u0131ll\u0131",
            "division": "rayon",
            "parent": "AZ"
        },
        {
            "code": "AZ-KAL",
            "name": "K\u0259lb\u0259c\u0259r",
            "division": "rayon",
            "parent": "AZ",
            "lat": 40.1066667,
            "lng": 46.03833329999998
        },
        {
            "code": "AZ-KUR",
            "name": "K\u00fcrd\u0259mir",
            "division": "rayon",
            "parent": "AZ",
            "lat": 40.3383333,
            "lng": 48.160833300000036
        },
        {
            "code": "AZ-LAC",
            "name": "La\u00e7\u0131n",
            "division": "rayon",
            "parent": "AZ",
            "lat": 39.6333333,
            "lng": 46.549999999999955
        },
        {
            "code": "AZ-LAN",
            "name": "L\u0259nk\u0259ran",
            "division": "rayon",
            "parent": "AZ",
            "lat": 38.7536111,
            "lng": 48.851111100000026
        },
        {
            "code": "AZ-LER",
            "name": "Lerik",
            "division": "rayon",
            "parent": "AZ",
            "lat": 38.7752778,
            "lng": 48.41527780000001
        },
        {
            "code": "AZ-MAS",
            "name": "Masall\u0131",
            "division": "rayon",
            "parent": "AZ",
            "lat": 39.0341667,
            "lng": 48.66555560000006
        },
        {
            "code": "AZ-NEF",
            "name": "Neft\u00e7ala",
            "division": "rayon",
            "parent": "AZ",
            "lat": 39.3586111,
            "lng": 49.24694439999996
        },
        {
            "code": "AZ-OGU",
            "name": "O\u011fuz",
            "division": "rayon",
            "parent": "AZ",
            "lat": 41.0708333,
            "lng": 47.45833330000005
        },
        {
            "code": "AZ-ORD",
            "name": "Ordubad",
            "division": "rayon",
            "parent": "AZ NX",
            "lat": 41.6025,
            "lng": -98.93
        },
        {
            "code": "AZ-QAB",
            "name": "Q\u0259b\u0259l\u0259",
            "division": "rayon",
            "parent": "AZ",
            "lat": 40.9813889,
            "lng": 47.84583329999998
        },
        {
            "code": "AZ-QAX",
            "name": "Qax",
            "division": "rayon",
            "parent": "AZ",
            "lat": 41.4225,
            "lng": 46.9241667
        },
        {
            "code": "AZ-QAZ",
            "name": "Qazax",
            "division": "rayon",
            "parent": "AZ",
            "lat": 41.0933333,
            "lng": 45.36611110000001
        },
        {
            "code": "AZ-QOB",
            "name": "Qobustan",
            "division": "rayon",
            "parent": "AZ",
            "lat": 40.5366667,
            "lng": 48.93277779999994
        },
        {
            "code": "AZ-QBA",
            "name": "Quba",
            "division": "rayon",
            "parent": "AZ",
            "lat": 41.3597222,
            "lng": 48.512500000000045
        },
        {
            "code": "AZ-QBI",
            "name": "Qubadl\u0131",
            "division": "rayon",
            "parent": "AZ",
            "lat": 39.3438889,
            "lng": 46.57972219999999
        },
        {
            "code": "AZ-QUS",
            "name": "Qusar",
            "division": "rayon",
            "parent": "AZ",
            "lat": 41.4263889,
            "lng": 48.43555560000004
        },
        {
            "code": "AZ-SAT",
            "name": "Saatl\u0131",
            "division": "rayon",
            "parent": "AZ",
            "lat": 39.9311111,
            "lng": 48.36972220000007
        },
        {
            "code": "AZ-SAB",
            "name": "Sabirabad",
            "division": "rayon",
            "parent": "AZ",
            "lat": 40.0127778,
            "lng": 48.478888900000015
        },
        {
            "code": "AZ-SAD",
            "name": "S\u0259d\u0259r\u0259k",
            "division": "rayon",
            "parent": "AZ NX"
        },
        {
            "code": "AZ-SAH",
            "name": "\u015eahbuz",
            "division": "rayon",
            "parent": "AZ NX"
        },
        {
            "code": "AZ-SAK",
            "name": "\u015e\u0259ki",
            "division": "rayon",
            "parent": "AZ",
            "lat": 41.2,
            "lng": 47.16666669999995
        },
        {
            "code": "AZ-SAL",
            "name": "Salyan",
            "division": "rayon",
            "parent": "AZ",
            "lat": 39.595,
            "lng": 48.97916669999995
        },
        {
            "code": "AZ-SMI",
            "name": "\u015eamax\u0131",
            "division": "rayon",
            "parent": "AZ",
            "lat": 40.6302778,
            "lng": 48.64138890000004
        },
        {
            "code": "AZ-SKR",
            "name": "\u015e\u0259mkir",
            "division": "rayon",
            "parent": "AZ",
            "lat": 40.8297222,
            "lng": 46.01888889999998
        },
        {
            "code": "AZ-SMX",
            "name": "Samux",
            "division": "rayon",
            "parent": "AZ",
            "lat": 34.898889,
            "lng": -120.457222
        },
        {
            "code": "AZ-SAR",
            "name": "\u015e\u0259rur",
            "division": "rayon",
            "parent": "AZ NX"
        },
        {
            "code": "AZ-SIY",
            "name": "Siy\u0259z\u0259n",
            "division": "rayon",
            "parent": "AZ",
            "lat": 41.0761111,
            "lng": 49.113888900000006
        },
        {
            "code": "AZ-SUS",
            "name": "\u015eu\u015fa",
            "division": "rayon",
            "parent": "AZ",
            "lat": 39.7537438,
            "lng": 46.746475499999974
        },
        {
            "code": "AZ-TAR",
            "name": "T\u0259rt\u0259r",
            "division": "rayon",
            "parent": "AZ",
            "lat": 40.345,
            "lng": 46.92888889999995
        },
        {
            "code": "AZ-TOV",
            "name": "Tovuz",
            "division": "rayon",
            "parent": "AZ",
            "lat": 40.9922222,
            "lng": 45.62888889999999
        },
        {
            "code": "AZ-UCA",
            "name": "Ucar",
            "division": "rayon",
            "parent": "AZ",
            "lat": 40.5183333,
            "lng": 47.65416670000002
        },
        {
            "code": "AZ-XAC",
            "name": "Xa\u00e7maz",
            "division": "rayon",
            "parent": "AZ",
            "lat": 41.4708333,
            "lng": 48.80972220000001
        },
        {
            "code": "AZ-XAN",
            "name": "Xanlar",
            "division": "rayon",
            "parent": "AZ",
            "lat": 40.5683896,
            "lng": 46.347553800000014
        },
        {
            "code": "AZ-XIZ",
            "name": "X\u0131z\u0131",
            "division": "rayon",
            "parent": "AZ",
            "lat": 40.9052661,
            "lng": 49.08167260000005
        },
        {
            "code": "AZ-XCI",
            "name": "Xocal\u0131",
            "division": "rayon",
            "parent": "AZ",
            "lat": 39.9132553,
            "lng": 46.79430500000001
        },
        {
            "code": "AZ-XVD",
            "name": "Xocav\u0259nd",
            "division": "rayon",
            "parent": "AZ",
            "lat": 39.791344,
            "lng": 47.10990620000007
        },
        {
            "code": "AZ-YAR",
            "name": "Yard\u0131ml\u0131",
            "division": "rayon",
            "parent": "AZ"
        },
        {
            "code": "AZ-YEV",
            "name": "Yevlax",
            "division": "rayon",
            "parent": "AZ",
            "lat": 40.6172222,
            "lng": 47.14999999999998
        },
        {
            "code": "AZ-ZAN",
            "name": "Z\u0259ngilan",
            "division": "rayon",
            "parent": "AZ",
            "lat": 39.0809671,
            "lng": 46.66397200000006
        },
        {
            "code": "AZ-ZAQ",
            "name": "Zaqatala",
            "division": "rayon",
            "parent": "AZ",
            "lat": 41.6336111,
            "lng": 46.643333299999995
        },
        {
            "code": "AZ-ZAR",
            "name": "Z\u0259rdab",
            "division": "rayon",
            "parent": "AZ",
            "lat": 40.2183333,
            "lng": 47.70833330000005
        }
    ]
}