{
    "name": "Bhutan",
    "alpha-2": "BT",
    "alpha-3": "BTN",
    "country-code": "064",
    "region": "Asia",
    "ISO3166-2": [
        {
            "code": "BT-33",
            "name": "Bumthang",
            "division": "district",
            "parent": "BT",
            "lat": 27.4610149,
            "lng": 90.80507579999994
        },
        {
            "code": "BT-12",
            "name": "Chhukha",
            "division": "district",
            "parent": "BT",
            "lat": 27.0522919,
            "lng": 89.57569869999998
        },
        {
            "code": "BT-22",
            "name": "Dagana",
            "division": "district",
            "parent": "BT",
            "lat": 27.0970034,
            "lng": 89.87389869999993
        },
        {
            "code": "BT-GA",
            "name": "Gasa",
            "division": "district",
            "parent": "BT",
            "lat": 27.8982746,
            "lng": 89.73095339999998
        },
        {
            "code": "BT-13",
            "name": "Ha",
            "division": "district",
            "parent": "BT",
            "lat": 27.386227,
            "lng": 89.27760169999999
        },
        {
            "code": "BT-44",
            "name": "Lhuentse",
            "division": "district",
            "parent": "BT",
            "lat": 27.659055,
            "lng": 91.1761004
        },
        {
            "code": "BT-42",
            "name": "Monggar",
            "division": "district",
            "parent": "BT",
            "lat": 27.275,
            "lng": 91.24000000000001
        },
        {
            "code": "BT-11",
            "name": "Paro",
            "division": "district",
            "parent": "BT",
            "lat": 27.4333333,
            "lng": 89.41666669999995
        },
        {
            "code": "BT-43",
            "name": "Pemagatshel",
            "division": "district",
            "parent": "BT"
        },
        {
            "code": "BT-23",
            "name": "Punakha",
            "division": "district",
            "parent": "BT",
            "lat": 27.5920869,
            "lng": 89.87974589999999
        },
        {
            "code": "BT-45",
            "name": "Samdrup Jongkha",
            "division": "district",
            "parent": "BT",
            "lat": 26.8015096,
            "lng": 91.55840020000005
        },
        {
            "code": "BT-14",
            "name": "Samtee",
            "division": "district",
            "parent": "BT",
            "lat": 53.1613781,
            "lng": 6.394201000000066
        },
        {
            "code": "BT-31",
            "name": "Sarpang",
            "division": "district",
            "parent": "BT",
            "lat": 26.8666667,
            "lng": 90.26666669999997
        },
        {
            "code": "BT-15",
            "name": "Thimphu",
            "division": "district",
            "parent": "BT",
            "lat": 27.4666667,
            "lng": 89.64166669999997
        },
        {
            "code": "BT-41",
            "name": "Trashigang",
            "division": "district",
            "parent": "BT",
            "lat": 27.3325014,
            "lng": 91.5523435
        },
        {
            "code": "BT-TY",
            "name": "Trashi Yangtse",
            "division": "district",
            "parent": "BT"
        },
        {
            "code": "BT-32",
            "name": "Trongsa",
            "division": "district",
            "parent": "BT",
            "lat": 27.5002269,
            "lng": 90.50806339999997
        },
        {
            "code": "BT-21",
            "name": "Tsirang",
            "division": "district",
            "parent": "BT",
            "lat": 27.0742281,
            "lng": 90.075917
        },
        {
            "code": "BT-24",
            "name": "Wangdue Phodrang",
            "division": "district",
            "parent": "BT",
            "lat": 27.4879018,
            "lng": 89.89961960000005
        },
        {
            "code": "BT-34",
            "name": "Zhemgang",
            "division": "district",
            "parent": "BT",
            "lat": 27.1439047,
            "lng": 90.6903529
        }
    ]
}