{
    "name": "Costa Rica",
    "alpha-2": "CR",
    "alpha-3": "CRI",
    "country-code": "188",
    "region": "Americas",
    "ISO3166-2": [
        {
            "code": "CR-A",
            "name": "Alajuela",
            "division": "province",
            "parent": "CR",
            "lat": 10.01644,
            "lng": -84.22126000000003
        },
        {
            "code": "CR-C",
            "name": "Cartago",
            "division": "province",
            "parent": "CR",
            "lat": 9.856872,
            "lng": -83.92083000000002
        },
        {
            "code": "CR-G",
            "name": "Guanacaste",
            "division": "province",
            "parent": "CR",
            "lat": 10.85,
            "lng": -85.61669999999998
        },
        {
            "code": "CR-H",
            "name": "Heredia",
            "division": "province",
            "parent": "CR",
            "lat": 9.991928,
            "lng": -84.12001800000002
        },
        {
            "code": "CR-L",
            "name": "Lim\u00f3n",
            "division": "province",
            "parent": "CR",
            "lat": 9.989424,
            "lng": -83.037394
        },
        {
            "code": "CR-P",
            "name": "Puntarenas",
            "division": "province",
            "parent": "CR",
            "lat": 9.9778439,
            "lng": -84.82942109999999
        },
        {
            "code": "CR-SJ",
            "name": "San Jos\u00e9",
            "division": "province",
            "parent": "CR",
            "lat": 9.9333333,
            "lng": -84.08333329999999
        }
    ]
}