{
    "name": "Djibouti",
    "alpha-2": "DJ",
    "alpha-3": "DJI",
    "country-code": "262",
    "region": "Africa",
    "ISO3166-2": [
        {
            "code": "DJ-AS",
            "name": "Ali Sabieh",
            "division": "region",
            "parent": "DJ",
            "lat": 11.15164,
            "lng": 42.712230999999974
        },
        {
            "code": "DJ-AR",
            "name": "Arta",
            "division": "region",
            "parent": "DJ",
            "lat": 11.5222222,
            "lng": 42.84194439999999
        },
        {
            "code": "DJ-DI",
            "name": "Dikhil",
            "division": "region",
            "parent": "DJ",
            "lat": 11.10421,
            "lng": 42.37243999999998
        },
        {
            "code": "DJ-OB",
            "name": "Obock",
            "division": "region",
            "parent": "DJ",
            "lat": 11.9674,
            "lng": 43.29140099999995
        },
        {
            "code": "DJ-TA",
            "name": "Tadjourah",
            "division": "region",
            "parent": "DJ",
            "lat": 11.7913106,
            "lng": 42.87962270000003
        },
        {
            "code": "DJ-DJ",
            "name": "Djibouti",
            "division": "city",
            "parent": "DJ",
            "lat": 11.588,
            "lng": 43.14499999999998
        }
    ]
}