{
    "name": "Algeria",
    "alpha-2": "DZ",
    "alpha-3": "DZA",
    "country-code": "012",
    "region": "Africa",
    "ISO3166-2": [
        {
            "code": "DZ-01",
            "name": "Adrar",
            "division": "province",
            "parent": "DZ",
            "lat": 27.8666667,
            "lng": -0.28333329999998114
        },
        {
            "code": "DZ-44",
            "name": "A\u00efn Defla",
            "division": "province",
            "parent": "DZ",
            "lat": 36.266667,
            "lng": 1.9666670000000295
        },
        {
            "code": "DZ-46",
            "name": "A\u00efn T\u00e9mouchent",
            "division": "province",
            "parent": "DZ",
            "lat": 35.30241,
            "lng": -1.1448900000000322
        },
        {
            "code": "DZ-16",
            "name": "Alger",
            "division": "province",
            "parent": "DZ",
            "lat": 36.752887,
            "lng": 3.0420480000000225
        },
        {
            "code": "DZ-23",
            "name": "Annaba",
            "division": "province",
            "parent": "DZ",
            "lat": 36.902859,
            "lng": 7.755542999999989
        },
        {
            "code": "DZ-05",
            "name": "Batna",
            "division": "province",
            "parent": "DZ",
            "lat": 35.55,
            "lng": 6.166666699999951
        },
        {
            "code": "DZ-08",
            "name": "B\u00e9char",
            "division": "province",
            "parent": "DZ",
            "lat": 31.608219,
            "lng": -2.2200050000000147
        },
        {
            "code": "DZ-06",
            "name": "B\u00e9ja\u00efa",
            "division": "province",
            "parent": "DZ",
            "lat": 36.75,
            "lng": 5.066666700000042
        },
        {
            "code": "DZ-07",
            "name": "Biskra",
            "division": "province",
            "parent": "DZ",
            "lat": 34.85,
            "lng": 5.733333300000027
        },
        {
            "code": "DZ-09",
            "name": "Blida",
            "division": "province",
            "parent": "DZ",
            "lat": 36.480499,
            "lng": 2.833904999999959
        },
        {
            "code": "DZ-34",
            "name": "Bordj Bou Arr\u00e9ridj",
            "division": "province",
            "parent": "DZ",
            "lat": 36.0711916,
            "lng": 4.758804199999986
        },
        {
            "code": "DZ-10",
            "name": "Bouira",
            "division": "province",
            "parent": "DZ",
            "lat": 36.3806,
            "lng": 3.89697799999999
        },
        {
            "code": "DZ-35",
            "name": "Boumerd\u00e8s",
            "division": "province",
            "parent": "DZ",
            "lat": 36.7666667,
            "lng": 3.4772222000000284
        },
        {
            "code": "DZ-02",
            "name": "Chlef",
            "division": "province",
            "parent": "DZ",
            "lat": 36.1666667,
            "lng": 1.3333333000000493
        },
        {
            "code": "DZ-25",
            "name": "Constantine",
            "division": "province",
            "parent": "DZ",
            "lat": 36.35,
            "lng": 6.600000000000023
        },
        {
            "code": "DZ-17",
            "name": "Djelfa",
            "division": "province",
            "parent": "DZ",
            "lat": 34.6666667,
            "lng": 3.25
        },
        {
            "code": "DZ-32",
            "name": "El Bayadh",
            "division": "province",
            "parent": "DZ",
            "lat": 33.69347,
            "lng": 1.0153400000000374
        },
        {
            "code": "DZ-39",
            "name": "El Oued",
            "division": "province",
            "parent": "DZ",
            "lat": 33.368309,
            "lng": 6.867369000000053
        },
        {
            "code": "DZ-36",
            "name": "El Tarf",
            "division": "province",
            "parent": "DZ",
            "lat": 36.7666667,
            "lng": 8.316666700000042
        },
        {
            "code": "DZ-47",
            "name": "Gharda\u00efa",
            "division": "province",
            "parent": "DZ",
            "lat": 32.489059,
            "lng": 3.6785390000000007
        },
        {
            "code": "DZ-24",
            "name": "Guelma",
            "division": "province",
            "parent": "DZ",
            "lat": 36.4659,
            "lng": 7.428360999999995
        },
        {
            "code": "DZ-33",
            "name": "Illizi",
            "division": "province",
            "parent": "DZ",
            "lat": 26.5094346,
            "lng": 8.47327180000002
        },
        {
            "code": "DZ-18",
            "name": "Jijel",
            "division": "province",
            "parent": "DZ",
            "lat": 36.8,
            "lng": 5.766666699999973
        },
        {
            "code": "DZ-40",
            "name": "Khenchela",
            "division": "province",
            "parent": "DZ",
            "lat": 35.43811,
            "lng": 7.146648000000027
        },
        {
            "code": "DZ-03",
            "name": "Laghouat",
            "division": "province",
            "parent": "DZ",
            "lat": 33.8,
            "lng": 2.883333300000004
        },
        {
            "code": "DZ-29",
            "name": "Mascara",
            "division": "province",
            "parent": "DZ",
            "lat": 35.400169,
            "lng": 0.13985200000001896
        },
        {
            "code": "DZ-26",
            "name": "M\u00e9d\u00e9a",
            "division": "province",
            "parent": "DZ",
            "lat": 36.2666667,
            "lng": 2.75
        },
        {
            "code": "DZ-43",
            "name": "Mila",
            "division": "province",
            "parent": "DZ",
            "lat": 36.4502778,
            "lng": 6.264444400000002
        },
        {
            "code": "DZ-27",
            "name": "Mostaganem",
            "division": "province",
            "parent": "DZ",
            "lat": 35.9333333,
            "lng": 0.08333330000004935
        },
        {
            "code": "DZ-28",
            "name": "Msila",
            "division": "province",
            "parent": "DZ",
            "lat": 35.7019444,
            "lng": 4.547222199999965
        },
        {
            "code": "DZ-45",
            "name": "Naama",
            "division": "province",
            "parent": "DZ",
            "lat": 33.266667,
            "lng": -0.3166670000000522
        },
        {
            "code": "DZ-31",
            "name": "Oran",
            "division": "province",
            "parent": "DZ",
            "lat": 35.6969444,
            "lng": -0.6330556000000342
        },
        {
            "code": "DZ-30",
            "name": "Ouargla",
            "division": "province",
            "parent": "DZ",
            "lat": 31.96298,
            "lng": 5.342010999999957
        },
        {
            "code": "DZ-04",
            "name": "Oum el Bouaghi",
            "division": "province",
            "parent": "DZ",
            "lat": 35.8775,
            "lng": 7.113611100000071
        },
        {
            "code": "DZ-48",
            "name": "Relizane",
            "division": "province",
            "parent": "DZ",
            "lat": 35.7333333,
            "lng": 0.5499999999999545
        },
        {
            "code": "DZ-20",
            "name": "Sa\u00efda",
            "division": "province",
            "parent": "DZ",
            "lat": 34.840752,
            "lng": 0.14947299999994357
        },
        {
            "code": "DZ-19",
            "name": "S\u00e9tif",
            "division": "province",
            "parent": "DZ",
            "lat": 36.18898,
            "lng": 5.41441599999996
        },
        {
            "code": "DZ-22",
            "name": "Sidi Bel Abb\u00e8s",
            "division": "province",
            "parent": "DZ",
            "lat": 35.2,
            "lng": -0.6333333000000039
        },
        {
            "code": "DZ-21",
            "name": "Skikda",
            "division": "province",
            "parent": "DZ",
            "lat": 36.8666667,
            "lng": 6.899999999999977
        },
        {
            "code": "DZ-41",
            "name": "Souk Ahras",
            "division": "province",
            "parent": "DZ",
            "lat": 36.28376,
            "lng": 7.9553789999999935
        },
        {
            "code": "DZ-11",
            "name": "Tamanghasset",
            "division": "province",
            "parent": "DZ",
            "lat": 22.785,
            "lng": 5.522777799999972
        },
        {
            "code": "DZ-12",
            "name": "T\u00e9bessa",
            "division": "province",
            "parent": "DZ",
            "lat": 35.407139,
            "lng": 8.120863999999983
        },
        {
            "code": "DZ-14",
            "name": "Tiaret",
            "division": "province",
            "parent": "DZ",
            "lat": 35.37849,
            "lng": 1.3256900000000087
        },
        {
            "code": "DZ-37",
            "name": "Tindouf",
            "division": "province",
            "parent": "DZ",
            "lat": 27.66984,
            "lng": -8.152100000000019
        },
        {
            "code": "DZ-42",
            "name": "Tipaza",
            "division": "province",
            "parent": "DZ",
            "lat": 36.5833333,
            "lng": 2.4333332999999584
        },
        {
            "code": "DZ-38",
            "name": "Tissemsilt",
            "division": "province",
            "parent": "DZ",
            "lat": 35.6077778,
            "lng": 1.811111100000062
        },
        {
            "code": "DZ-15",
            "name": "Tizi Ouzou",
            "division": "province",
            "parent": "DZ",
            "lat": 36.7166667,
            "lng": 4.0499999999999545
        },
        {
            "code": "DZ-13",
            "name": "Tlemcen",
            "division": "province",
            "parent": "DZ",
            "lat": 34.8825,
            "lng": -1.3139300000000276
        }
    ]
}