{
    "name": "Grenada",
    "alpha-2": "GD",
    "alpha-3": "GRD",
    "country-code": "308",
    "region": "Americas",
    "ISO3166-2": [
        {
            "code": "GD-01",
            "name": "Saint Andrew",
            "division": "parish",
            "parent": "GD"
        },
        {
            "code": "GD-02",
            "name": "Saint David",
            "division": "parish",
            "parent": "GD",
            "lat": 12.038513,
            "lng": -61.66890799999999
        },
        {
            "code": "GD-03",
            "name": "Saint George",
            "division": "parish",
            "parent": "GD",
            "lat": 12.053532,
            "lng": -61.749684
        },
        {
            "code": "GD-04",
            "name": "Saint John",
            "division": "parish",
            "parent": "GD",
            "lat": 12.1633252,
            "lng": -61.72794520000002
        },
        {
            "code": "GD-05",
            "name": "Saint Mark",
            "division": "parish",
            "parent": "GD",
            "lat": 12.1979128,
            "lng": -61.705680099999995
        },
        {
            "code": "GD-06",
            "name": "Saint Patrick",
            "division": "parish",
            "parent": "GD",
            "lat": 12.2166667,
            "lng": -61.633333300000004
        },
        {
            "code": "GD-10",
            "name": "Southern Grenadine Islands",
            "division": "dependency",
            "parent": "GD"
        }
    ]
}