{
    "name": "Israel",
    "alpha-2": "IL",
    "alpha-3": "ISR",
    "country-code": "376",
    "region": "Asia",
    "ISO3166-2": [
        {
            "code": "IL-D",
            "name": "HaDarom",
            "division": "district",
            "parent": "IL",
            "lat": 30.829562,
            "lng": 35.03881639999997
        },
        {
            "code": "IL-M",
            "name": "HaMerkaz",
            "division": "district",
            "parent": "IL",
            "lat": 31.9521108,
            "lng": 34.906551000000036
        },
        {
            "code": "IL-Z",
            "name": "HaZafon",
            "division": "district",
            "parent": "IL",
            "lat": 32.8404017,
            "lng": 35.47819260000006
        },
        {
            "code": "IL-HA",
            "name": "Hefa",
            "division": "district",
            "parent": "IL",
            "lat": 32.83036,
            "lng": 34.974338999999986
        },
        {
            "code": "IL-TA",
            "name": "Tel-Aviv",
            "division": "district",
            "parent": "IL",
            "lat": 32.066157,
            "lng": 34.77782100000002
        },
        {
            "code": "IL-JM",
            "name": "Yerushalayim Al Quds",
            "division": "district",
            "parent": "IL"
        }
    ]
}