{
    "name": "Lithuania",
    "alpha-2": "LT",
    "alpha-3": "LTU",
    "country-code": "440",
    "region": "Europe",
    "ISO3166-2": [
        {
            "code": "LT-AL",
            "name": "Alytaus Apskritis",
            "division": "county",
            "parent": "LT",
            "lat": 54.3297496,
            "lng": 24.19609319999995
        },
        {
            "code": "LT-KU",
            "name": "Kauno Apskritis",
            "division": "county",
            "parent": "LT",
            "lat": 54.9894104,
            "lng": 23.717079099999978
        },
        {
            "code": "LT-KL",
            "name": "Klaip\u0117dos Apskritis",
            "division": "county",
            "parent": "LT",
            "lat": 55.6686983,
            "lng": 21.424137299999984
        },
        {
            "code": "LT-MR",
            "name": "Marijampol\u0117s Apskritis",
            "division": "county",
            "parent": "LT",
            "lat": 54.557812,
            "lng": 23.34981240000002
        },
        {
            "code": "LT-PN",
            "name": "Panev\u0117\u017eio Apskritis",
            "division": "county",
            "parent": "LT",
            "lat": 55.8051868,
            "lng": 24.016592599999967
        },
        {
            "code": "LT-SA",
            "name": "\u0160iauli\u0173 Apskritis",
            "division": "county",
            "parent": "LT",
            "lat": 55.9721456,
            "lng": 23.033236999999986
        },
        {
            "code": "LT-TA",
            "name": "Taurag\u00e9s Apskritis",
            "division": "county",
            "parent": "LT",
            "lat": 55.4050846,
            "lng": 22.573037200000044
        },
        {
            "code": "LT-TE",
            "name": "Tel\u0161i\u0173 Apskritis",
            "division": "county",
            "parent": "LT",
            "lat": 55.9884349,
            "lng": 22.243248600000015
        },
        {
            "code": "LT-UT",
            "name": "Utenos Apskritis",
            "division": "county",
            "parent": "LT",
            "lat": 55.5003184,
            "lng": 25.608860700000037
        },
        {
            "code": "LT-VL",
            "name": "Vilniaus Apskritis",
            "division": "county",
            "parent": "LT",
            "lat": 54.7732578,
            "lng": 25.586711299999934
        }
    ]
}