{
    "name": "Mongolia",
    "alpha-2": "MN",
    "alpha-3": "MNG",
    "country-code": "496",
    "region": "Asia",
    "ISO3166-2": [
        {
            "code": "MN-073",
            "name": "Arhangay",
            "division": "province",
            "parent": "MN"
        },
        {
            "code": "MN-069",
            "name": "Bayanhongor",
            "division": "province",
            "parent": "MN",
            "lat": 46.1916667,
            "lng": 100.71777780000002
        },
        {
            "code": "MN-071",
            "name": "Bayan-\u00d6lgiy",
            "division": "province",
            "parent": "MN",
            "lat": 48.9683333,
            "lng": 89.96861109999998
        },
        {
            "code": "MN-067",
            "name": "Bulgan",
            "division": "province",
            "parent": "MN",
            "lat": 48.8119444,
            "lng": 103.53361110000003
        },
        {
            "code": "MN-061",
            "name": "Dornod",
            "division": "province",
            "parent": "MN",
            "lat": 48.0677702,
            "lng": 114.5260763
        },
        {
            "code": "MN-063",
            "name": "Dornogovi",
            "division": "province",
            "parent": "MN"
        },
        {
            "code": "MN-059",
            "name": "Dundgovi",
            "division": "province",
            "parent": "MN"
        },
        {
            "code": "MN-057",
            "name": "Dzavhan",
            "division": "province",
            "parent": "MN"
        },
        {
            "code": "MN-065",
            "name": "Govi-Altay",
            "division": "province",
            "parent": "MN",
            "lat": 46.3727778,
            "lng": 96.2572222
        },
        {
            "code": "MN-039",
            "name": "Hentiy",
            "division": "province",
            "parent": "MN",
            "lat": 48.094311,
            "lng": 109.80410000000006
        },
        {
            "code": "MN-043",
            "name": "Hovd",
            "division": "province",
            "parent": "MN",
            "lat": 48.0047,
            "lng": 91.63613099999998
        },
        {
            "code": "MN-041",
            "name": "H\u00f6vsg\u00f6l",
            "division": "province",
            "parent": "MN"
        },
        {
            "code": "MN-053",
            "name": "\u00d6mn\u00f6govi",
            "division": "province",
            "parent": "MN"
        },
        {
            "code": "MN-055",
            "name": "\u00d6v\u00f6rhangay",
            "division": "province",
            "parent": "MN"
        },
        {
            "code": "MN-049",
            "name": "Selenge",
            "division": "province",
            "parent": "MN",
            "lat": 50.2345827,
            "lng": 106.20351430000005
        },
        {
            "code": "MN-051",
            "name": "S\u00fchbaatar",
            "division": "province",
            "parent": "MN",
            "lat": 46.887696,
            "lng": 113.40535239999997
        },
        {
            "code": "MN-047",
            "name": "T\u00f6v",
            "division": "province",
            "parent": "MN"
        },
        {
            "code": "MN-046",
            "name": "Uvs",
            "division": "province",
            "parent": "MN",
            "lat": 48.9906268,
            "lng": 89.99350370000002
        },
        {
            "code": "MN-1",
            "name": "Ulanbaatar",
            "division": "municipality",
            "parent": "MN",
            "lat": 47.921378,
            "lng": 106.90553999999997
        },
        {
            "code": "MN-037",
            "name": "Darhan uul",
            "division": "municipality",
            "parent": "MN",
            "lat": 49.0495592,
            "lng": 105.3893137
        },
        {
            "code": "MN-064",
            "name": "Govi-Sumber",
            "division": "municipality",
            "parent": "MN"
        },
        {
            "code": "MN-035",
            "name": "Orhon",
            "division": "municipality",
            "parent": "MN"
        }
    ]
}