{
    "name": "Malta",
    "alpha-2": "MT",
    "alpha-3": "MLT",
    "country-code": "470",
    "region": "Europe",
    "ISO3166-2": [
        {
            "code": "MT-01",
            "name": "Attard",
            "division": "local council",
            "parent": "MT",
            "lat": 35.8879888,
            "lng": 14.442607800000019
        },
        {
            "code": "MT-02",
            "name": "Balzan",
            "division": "local council",
            "parent": "MT",
            "lat": 35.8731516,
            "lng": 14.439720699999953
        },
        {
            "code": "MT-03",
            "name": "Birgu",
            "division": "local council",
            "parent": "MT",
            "lat": 35.8888398,
            "lng": 14.520091500000035
        },
        {
            "code": "MT-04",
            "name": "Birkirkara",
            "division": "local council",
            "parent": "MT",
            "lat": 35.8950606,
            "lng": 14.463049899999987
        },
        {
            "code": "MT-05",
            "name": "Bir\u017cebbu\u0121a",
            "division": "local council",
            "parent": "MT",
            "lat": 35.8304915,
            "lng": 14.530126999999993
        },
        {
            "code": "MT-06",
            "name": "Bormla",
            "division": "local council",
            "parent": "MT",
            "lat": 35.8743537,
            "lng": 14.522833999999989
        },
        {
            "code": "MT-07",
            "name": "Dingli",
            "division": "local council",
            "parent": "MT",
            "lat": 35.8563889,
            "lng": 14.383055600000034
        },
        {
            "code": "MT-08",
            "name": "Fgura",
            "division": "local council",
            "parent": "MT",
            "lat": 35.8730542,
            "lng": 14.520880199999965
        },
        {
            "code": "MT-09",
            "name": "Floriana",
            "division": "local council",
            "parent": "MT",
            "lat": 35.9040895,
            "lng": 14.488814999999931
        },
        {
            "code": "MT-10",
            "name": "Fontana",
            "division": "local council",
            "parent": "MT",
            "lat": 30.527739,
            "lng": -99.85257590000003
        },
        {
            "code": "MT-11",
            "name": "Gudja",
            "division": "local council",
            "parent": "MT",
            "lat": 35.8512182,
            "lng": 14.502057100000002
        },
        {
            "code": "MT-12",
            "name": "G\u017cira",
            "division": "local council",
            "parent": "MT",
            "lat": 35.9037636,
            "lng": 14.502175999999963
        },
        {
            "code": "MT-13",
            "name": "G\u0127ajnsielem",
            "division": "local council",
            "parent": "MT",
            "lat": 36.0265491,
            "lng": 14.289838700000018
        },
        {
            "code": "MT-14",
            "name": "G\u0127arb",
            "division": "local council",
            "parent": "MT",
            "lat": 36.060097,
            "lng": 14.208884000000012
        },
        {
            "code": "MT-15",
            "name": "G\u0127arg\u0127ur",
            "division": "local council",
            "parent": "MT",
            "lat": 35.9239442,
            "lng": 14.45175560000007
        },
        {
            "code": "MT-16",
            "name": "G\u0127asri",
            "division": "local council",
            "parent": "MT",
            "lat": 36.0795327,
            "lng": 14.22965529999999
        },
        {
            "code": "MT-17",
            "name": "G\u0127axaq",
            "division": "local council",
            "parent": "MT",
            "lat": 35.8479444,
            "lng": 14.5189838
        },
        {
            "code": "MT-18",
            "name": "\u0126amrun",
            "division": "local council",
            "parent": "MT",
            "lat": 35.8884784,
            "lng": 14.488611600000013
        },
        {
            "code": "MT-19",
            "name": "Iklin",
            "division": "local council",
            "parent": "MT",
            "lat": 35.8504373,
            "lng": 14.512087500000007
        },
        {
            "code": "MT-20",
            "name": "Isla",
            "division": "local council",
            "parent": "MT",
            "lat": 35.8877284,
            "lng": 14.515975799999978
        },
        {
            "code": "MT-21",
            "name": "Kalkara",
            "division": "local council",
            "parent": "MT",
            "lat": 36.0261756,
            "lng": 14.235067299999969
        },
        {
            "code": "MT-22",
            "name": "Ker\u010bem",
            "division": "local council",
            "parent": "MT",
            "lat": 36.042495,
            "lng": 14.230332599999997
        },
        {
            "code": "MT-23",
            "name": "Kirkop",
            "division": "local council",
            "parent": "MT",
            "lat": 35.8420134,
            "lng": 14.485034199999973
        },
        {
            "code": "MT-24",
            "name": "Lija",
            "division": "local council",
            "parent": "MT",
            "lat": 35.901996,
            "lng": 14.448781999999937
        },
        {
            "code": "MT-25",
            "name": "Luqa",
            "division": "local council",
            "parent": "MT",
            "lat": 35.849777,
            "lng": 14.495401000000015
        },
        {
            "code": "MT-26",
            "name": "Marsa",
            "division": "local council",
            "parent": "MT",
            "lat": 35.8812303,
            "lng": 14.49145539999995
        },
        {
            "code": "MT-27",
            "name": "Marsaskala",
            "division": "local council",
            "parent": "MT",
            "lat": 35.8658707,
            "lng": 14.564163199999939
        },
        {
            "code": "MT-28",
            "name": "Marsaxlokk",
            "division": "local council",
            "parent": "MT",
            "lat": 35.8514918,
            "lng": 14.531830899999932
        },
        {
            "code": "MT-29",
            "name": "Mdina",
            "division": "local council",
            "parent": "MT",
            "lat": 35.8568657,
            "lng": 14.438607400000024
        },
        {
            "code": "MT-30",
            "name": "Mellie\u0127a",
            "division": "local council",
            "parent": "MT",
            "lat": 35.9554241,
            "lng": 14.365363000000002
        },
        {
            "code": "MT-31",
            "name": "M\u0121arr",
            "division": "local council",
            "parent": "MT",
            "lat": 35.9194694,
            "lng": 14.366321599999992
        },
        {
            "code": "MT-32",
            "name": "Mosta",
            "division": "local council",
            "parent": "MT",
            "lat": 35.909817,
            "lng": 14.425944999999956
        },
        {
            "code": "MT-33",
            "name": "Mqabba",
            "division": "local council",
            "parent": "MT",
            "lat": 35.8472885,
            "lng": 14.453591299999971
        },
        {
            "code": "MT-34",
            "name": "Msida",
            "division": "local council",
            "parent": "MT",
            "lat": 35.8997993,
            "lng": 14.486613900000066
        },
        {
            "code": "MT-35",
            "name": "Mtarfa",
            "division": "local council",
            "parent": "MT",
            "lat": 35.8907135,
            "lng": 14.397900199999981
        },
        {
            "code": "MT-36",
            "name": "Munxar",
            "division": "local council",
            "parent": "MT",
            "lat": 36.0324853,
            "lng": 14.232669499999929
        },
        {
            "code": "MT-37",
            "name": "Nadur",
            "division": "local council",
            "parent": "MT",
            "lat": 36.0377433,
            "lng": 14.294253600000047
        },
        {
            "code": "MT-38",
            "name": "Naxxar",
            "division": "local council",
            "parent": "MT",
            "lat": 35.9252778,
            "lng": 14.440000000000055
        },
        {
            "code": "MT-39",
            "name": "Paola",
            "division": "local council",
            "parent": "MT",
            "lat": 40.2457051,
            "lng": 16.46396189999996
        },
        {
            "code": "MT-40",
            "name": "Pembroke",
            "division": "local council",
            "parent": "MT",
            "lat": 45.6298153,
            "lng": -76.88135879999999
        },
        {
            "code": "MT-41",
            "name": "Piet\u00e0",
            "division": "local council",
            "parent": "MT",
            "lat": 40.7423001,
            "lng": 16.244173899999964
        },
        {
            "code": "MT-42",
            "name": "Qala",
            "division": "local council",
            "parent": "MT",
            "lat": 36.0325,
            "lng": 14.33583329999999
        },
        {
            "code": "MT-43",
            "name": "Qormi",
            "division": "local council",
            "parent": "MT",
            "lat": 35.8778714,
            "lng": 14.47307109999997
        },
        {
            "code": "MT-44",
            "name": "Qrendi",
            "division": "local council",
            "parent": "MT",
            "lat": 35.8493543,
            "lng": 14.438388799999984
        },
        {
            "code": "MT-45",
            "name": "Rabat G\u0127awdex",
            "division": "local council",
            "parent": "MT",
            "lat": 36.0462147,
            "lng": 14.239461399999982
        },
        {
            "code": "MT-46",
            "name": "Rabat Malta",
            "division": "local council",
            "parent": "MT",
            "lat": 35.8816023,
            "lng": 14.449039800000037
        },
        {
            "code": "MT-47",
            "name": "Safi",
            "division": "local council",
            "parent": "MT",
            "lat": 35.8449903,
            "lng": 14.50046969999994
        },
        {
            "code": "MT-48",
            "name": "San \u0120iljan",
            "division": "local council",
            "parent": "MT",
            "lat": 35.8873749,
            "lng": 14.517129000000068
        },
        {
            "code": "MT-49",
            "name": "San \u0120wann",
            "division": "local council",
            "parent": "MT",
            "lat": 35.8864233,
            "lng": 14.486503299999981
        },
        {
            "code": "MT-50",
            "name": "San Lawrenz",
            "division": "local council",
            "parent": "MT",
            "lat": 35.8861207,
            "lng": 14.518174499999986
        },
        {
            "code": "MT-51",
            "name": "San Pawl il-Ba\u0127ar",
            "division": "local council",
            "parent": "MT",
            "lat": 35.953041,
            "lng": 14.380867200000012
        },
        {
            "code": "MT-52",
            "name": "Sannat",
            "division": "local council",
            "parent": "MT",
            "lat": 36.0290762,
            "lng": 14.243961600000034
        },
        {
            "code": "MT-53",
            "name": "Santa Lu\u010bija",
            "division": "local council",
            "parent": "MT",
            "lat": 35.8532564,
            "lng": 14.53298129999996
        },
        {
            "code": "MT-54",
            "name": "Santa Venera",
            "division": "local council",
            "parent": "MT",
            "lat": 35.8766873,
            "lng": 14.439033900000027
        },
        {
            "code": "MT-55",
            "name": "Si\u0121\u0121iewi",
            "division": "local council",
            "parent": "MT",
            "lat": 35.868651,
            "lng": 14.445298500000035
        },
        {
            "code": "MT-56",
            "name": "Sliema",
            "division": "local council",
            "parent": "MT",
            "lat": 35.90846,
            "lng": 14.50548690000005
        },
        {
            "code": "MT-57",
            "name": "Swieqi",
            "division": "local council",
            "parent": "MT",
            "lat": 35.9200695,
            "lng": 14.483894400000054
        },
        {
            "code": "MT-58",
            "name": "Ta\u2019 Xbiex",
            "division": "local council",
            "parent": "MT",
            "lat": 35.9007416,
            "lng": 14.497644700000023
        },
        {
            "code": "MT-59",
            "name": "Tarxien",
            "division": "local council",
            "parent": "MT",
            "lat": 35.8691548,
            "lng": 14.50859730000002
        },
        {
            "code": "MT-60",
            "name": "Valletta",
            "division": "local council",
            "parent": "MT",
            "lat": 35.8735785,
            "lng": 14.503099399999996
        },
        {
            "code": "MT-61",
            "name": "Xag\u0127ra",
            "division": "local council",
            "parent": "MT",
            "lat": 36.0407595,
            "lng": 14.261593500000004
        },
        {
            "code": "MT-62",
            "name": "Xewkija",
            "division": "local council",
            "parent": "MT",
            "lat": 36.0271827,
            "lng": 14.272117200000025
        },
        {
            "code": "MT-63",
            "name": "Xg\u0127ajra",
            "division": "local council",
            "parent": "MT",
            "lat": 35.8834472,
            "lng": 14.541890700000067
        },
        {
            "code": "MT-64",
            "name": "\u017babbar",
            "division": "local council",
            "parent": "MT",
            "lat": 35.8762631,
            "lng": 14.535899200000017
        },
        {
            "code": "MT-65",
            "name": "\u017bebbu\u0121 G\u0127awdex",
            "division": "local council",
            "parent": "MT",
            "lat": 35.8747928,
            "lng": 14.444065300000034
        },
        {
            "code": "MT-66",
            "name": "\u017bebbu\u0121 Malta",
            "division": "local council",
            "parent": "MT",
            "lat": 35.8749122,
            "lng": 14.477849900000024
        },
        {
            "code": "MT-67",
            "name": "\u017bejtun",
            "division": "local council",
            "parent": "MT",
            "lat": 35.8636048,
            "lng": 14.518105300000002
        },
        {
            "code": "MT-68",
            "name": "\u017burrieq",
            "division": "local council",
            "parent": "MT",
            "lat": 35.8398639,
            "lng": 14.47093080000002
        }
    ]
}