{
    "name": "Mexico",
    "alpha-2": "MX",
    "alpha-3": "MEX",
    "country-code": "484",
    "region": "Americas",
    "ISO3166-2": [
        {
            "code": "MX-DIF",
            "name": "Distrito Federal",
            "division": "federal district",
            "parent": "MX",
            "lat": 19.4270499,
            "lng": -99.12757110000001
        },
        {
            "code": "MX-AGU",
            "name": "Aguascalientes",
            "division": "state",
            "parent": "MX",
            "lat": 21.8817964,
            "lng": -102.29127010000002
        },
        {
            "code": "MX-BCN",
            "name": "Baja California",
            "division": "state",
            "parent": "MX",
            "lat": 30.8406338,
            "lng": -115.28375849999998
        },
        {
            "code": "MX-BCS",
            "name": "Baja California Sur",
            "division": "state",
            "parent": "MX",
            "lat": 26.0444446,
            "lng": -111.66607249999998
        },
        {
            "code": "MX-CAM",
            "name": "Campeche",
            "division": "state",
            "parent": "MX",
            "lat": 19.8454459,
            "lng": -90.5236731
        },
        {
            "code": "MX-COA",
            "name": "Coahuila",
            "division": "state",
            "parent": "MX",
            "lat": 32.6415503,
            "lng": -115.4941981
        },
        {
            "code": "MX-COL",
            "name": "Colima",
            "division": "state",
            "parent": "MX",
            "lat": 19.2433333,
            "lng": -103.72472219999997
        },
        {
            "code": "MX-CHP",
            "name": "Chiapas",
            "division": "state",
            "parent": "MX",
            "lat": 16.3224417,
            "lng": -91.79106189999999
        },
        {
            "code": "MX-CHH",
            "name": "Chihuahua",
            "division": "state",
            "parent": "MX",
            "lat": 28.6352778,
            "lng": -106.08888890000003
        },
        {
            "code": "MX-DUR",
            "name": "Durango",
            "division": "state",
            "parent": "MX",
            "lat": 24.0277202,
            "lng": -104.65317590000001
        },
        {
            "code": "MX-GUA",
            "name": "Guanajuato",
            "division": "state",
            "parent": "MX",
            "lat": 21.018111,
            "lng": -101.25832000000003
        },
        {
            "code": "MX-GRO",
            "name": "Guerrero",
            "division": "state",
            "parent": "MX",
            "lat": 17.5897949,
            "lng": -99.18211810000003
        },
        {
            "code": "MX-HID",
            "name": "Hidalgo",
            "division": "state",
            "parent": "MX",
            "lat": 20.6668191,
            "lng": -99.01289259999999
        },
        {
            "code": "MX-JAL",
            "name": "Jalisco",
            "division": "state",
            "parent": "MX",
            "lat": 19.711419,
            "lng": -103.47538320000001
        },
        {
            "code": "MX-MEX",
            "name": "M\u00e9xico",
            "division": "state",
            "parent": "MX",
            "lat": 19.4270499,
            "lng": -99.12757110000001
        },
        {
            "code": "MX-MIC",
            "name": "Michoac\u00e1n",
            "division": "state",
            "parent": "MX",
            "lat": 19.5665192,
            "lng": -101.7068294
        },
        {
            "code": "MX-MOR",
            "name": "Morelos",
            "division": "state",
            "parent": "MX",
            "lat": 18.6366815,
            "lng": -98.95903750000002
        },
        {
            "code": "MX-NAY",
            "name": "Nayarit",
            "division": "state",
            "parent": "MX",
            "lat": 21.7513844,
            "lng": -104.84546190000003
        },
        {
            "code": "MX-NLE",
            "name": "Nuevo Le\u00f3n",
            "division": "state",
            "parent": "MX",
            "lat": 23.452738,
            "lng": -100.037148
        },
        {
            "code": "MX-OAX",
            "name": "Oaxaca",
            "division": "state",
            "parent": "MX",
            "lat": 17.0669444,
            "lng": -96.72027780000002
        },
        {
            "code": "MX-PUE",
            "name": "Puebla",
            "division": "state",
            "parent": "MX",
            "lat": 19.0412967,
            "lng": -98.20619959999999
        },
        {
            "code": "MX-QUE",
            "name": "Quer\u00e9taro",
            "division": "state",
            "parent": "MX",
            "lat": 20.5930556,
            "lng": -100.39222219999999
        },
        {
            "code": "MX-ROO",
            "name": "Quintana Roo",
            "division": "state",
            "parent": "MX",
            "lat": 19.1817393,
            "lng": -88.4791376
        },
        {
            "code": "MX-SLP",
            "name": "San Luis Potos\u00ed",
            "division": "state",
            "parent": "MX",
            "lat": 22.1564699,
            "lng": -100.98554089999999
        },
        {
            "code": "MX-SIN",
            "name": "Sinaloa",
            "division": "state",
            "parent": "MX",
            "lat": 25.9169914,
            "lng": -108.05547839999997
        },
        {
            "code": "MX-SON",
            "name": "Sonora",
            "division": "state",
            "parent": "MX",
            "lat": 32.0621992,
            "lng": -114.97192210000003
        },
        {
            "code": "MX-TAB",
            "name": "Tabasco",
            "division": "state",
            "parent": "MX",
            "lat": 17.8409173,
            "lng": -92.6189273
        },
        {
            "code": "MX-TAM",
            "name": "Tamaulipas",
            "division": "state",
            "parent": "MX",
            "lat": 24.26694,
            "lng": -98.8362755
        },
        {
            "code": "MX-TLA",
            "name": "Tlaxcala",
            "division": "state",
            "parent": "MX",
            "lat": 19.3122222,
            "lng": -98.23944440000002
        },
        {
            "code": "MX-VER",
            "name": "Veracruz",
            "division": "state",
            "parent": "MX",
            "lat": 19.1727167,
            "lng": -96.13326890000002
        },
        {
            "code": "MX-YUC",
            "name": "Yucat\u00e1n",
            "division": "state",
            "parent": "MX",
            "lat": 20.993468,
            "lng": -89.6239875
        },
        {
            "code": "MX-ZAC",
            "name": "Zacatecas",
            "division": "state",
            "parent": "MX",
            "lat": 22.7709249,
            "lng": -102.58325389999999
        }
    ]
}