{
    "name": "Mozambique",
    "alpha-2": "MZ",
    "alpha-3": "MOZ",
    "country-code": "508",
    "region": "Africa",
    "ISO3166-2": [
        {
            "code": "MZ-MPM",
            "name": "Maputo (city)",
            "division": "city",
            "parent": "MZ",
            "lat": -25.9666667,
            "lng": 32.58333330000005
        },
        {
            "code": "MZ-P",
            "name": "Cabo Delgado",
            "division": "province",
            "parent": "MZ",
            "lat": -12.3335474,
            "lng": 39.32062410000003
        },
        {
            "code": "MZ-G",
            "name": "Gaza",
            "division": "province",
            "parent": "MZ",
            "lat": -23.0221928,
            "lng": 32.71813750000001
        },
        {
            "code": "MZ-I",
            "name": "Inhambane",
            "division": "province",
            "parent": "MZ",
            "lat": -23.873541,
            "lng": 35.388259999999946
        },
        {
            "code": "MZ-B",
            "name": "Manica",
            "division": "province",
            "parent": "MZ",
            "lat": -18.9344444,
            "lng": 32.875555599999984
        },
        {
            "code": "MZ-L",
            "name": "Maputo",
            "division": "province",
            "parent": "MZ",
            "lat": -25.9666667,
            "lng": 32.58333330000005
        },
        {
            "code": "MZ-N",
            "name": "Numpula",
            "division": "province",
            "parent": "MZ",
            "lat": -15.1166667,
            "lng": 39.26666669999997
        },
        {
            "code": "MZ-A",
            "name": "Niassa",
            "division": "province",
            "parent": "MZ",
            "lat": -12.7826202,
            "lng": 36.60939259999998
        },
        {
            "code": "MZ-S",
            "name": "Sofala",
            "division": "province",
            "parent": "MZ",
            "lat": -19.2039073,
            "lng": 34.86241659999996
        },
        {
            "code": "MZ-T",
            "name": "Tete",
            "division": "province",
            "parent": "MZ",
            "lat": -16.1666667,
            "lng": 33.60000000000002
        },
        {
            "code": "MZ-Q",
            "name": "Zambezia",
            "division": "province",
            "parent": "MZ",
            "lat": -16.5638987,
            "lng": 36.60939259999998
        }
    ]
}