{
    "name": "Nigeria",
    "alpha-2": "NG",
    "alpha-3": "NGA",
    "country-code": "566",
    "region": "Africa",
    "ISO3166-2": [
        {
            "code": "NG-FC",
            "name": "Abuja Capital Territory",
            "division": "capital territory",
            "parent": "NG",
            "lat": 9.058036,
            "lng": 7.489060999999992
        },
        {
            "code": "NG-AB",
            "name": "Abia",
            "division": "state",
            "parent": "NG",
            "lat": 5.1166667,
            "lng": 7.366666699999996
        },
        {
            "code": "NG-AD",
            "name": "Adamawa",
            "division": "state",
            "parent": "NG"
        },
        {
            "code": "NG-AK",
            "name": "Akwa Ibom",
            "division": "state",
            "parent": "NG"
        },
        {
            "code": "NG-AN",
            "name": "Anambra",
            "division": "state",
            "parent": "NG"
        },
        {
            "code": "NG-BA",
            "name": "Bauchi",
            "division": "state",
            "parent": "NG",
            "lat": 10.30982,
            "lng": 9.845172000000048
        },
        {
            "code": "NG-BY",
            "name": "Bayelsa",
            "division": "state",
            "parent": "NG"
        },
        {
            "code": "NG-BE",
            "name": "Benue",
            "division": "state",
            "parent": "NG"
        },
        {
            "code": "NG-BO",
            "name": "Borno",
            "division": "state",
            "parent": "NG"
        },
        {
            "code": "NG-CR",
            "name": "Cross River",
            "division": "state",
            "parent": "NG",
            "lat": 41.263153,
            "lng": -73.61331200000001
        },
        {
            "code": "NG-DE",
            "name": "Delta",
            "division": "state",
            "parent": "NG",
            "lat": -11.9385307,
            "lng": -76.99765560000003
        },
        {
            "code": "NG-EB",
            "name": "Ebonyi",
            "division": "state",
            "parent": "NG"
        },
        {
            "code": "NG-ED",
            "name": "Edo",
            "division": "state",
            "parent": "NG",
            "lat": 6.3425117,
            "lng": 5.618197900000041
        },
        {
            "code": "NG-EK",
            "name": "Ekiti",
            "division": "state",
            "parent": "NG"
        },
        {
            "code": "NG-EN",
            "name": "Enugu",
            "division": "state",
            "parent": "NG",
            "lat": 6.4526667,
            "lng": 7.510333299999957
        },
        {
            "code": "NG-GO",
            "name": "Gombe",
            "division": "state",
            "parent": "NG",
            "lat": 10.2824,
            "lng": 11.17479000000003
        },
        {
            "code": "NG-IM",
            "name": "Imo",
            "division": "state",
            "parent": "NG"
        },
        {
            "code": "NG-JI",
            "name": "Jigawa",
            "division": "state",
            "parent": "NG",
            "lat": 12.6212435,
            "lng": 8.970081700000037
        },
        {
            "code": "NG-KD",
            "name": "Kaduna",
            "division": "state",
            "parent": "NG",
            "lat": 10.5166667,
            "lng": 7.433333299999958
        },
        {
            "code": "NG-KN",
            "name": "Kano",
            "division": "state",
            "parent": "NG",
            "lat": 12,
            "lng": 8.516666999999984
        },
        {
            "code": "NG-KT",
            "name": "Katsina",
            "division": "state",
            "parent": "NG",
            "lat": 12.99302,
            "lng": 7.606163000000038
        },
        {
            "code": "NG-KE",
            "name": "Kebbi",
            "division": "state",
            "parent": "NG"
        },
        {
            "code": "NG-KO",
            "name": "Kogi",
            "division": "state",
            "parent": "NG"
        },
        {
            "code": "NG-KW",
            "name": "Kwara",
            "division": "state",
            "parent": "NG",
            "lat": 8.9847995,
            "lng": 4.56244259999994
        },
        {
            "code": "NG-LA",
            "name": "Lagos",
            "division": "state",
            "parent": "NG",
            "lat": 6.4530556,
            "lng": 3.3958333000000493
        },
        {
            "code": "NG-NA",
            "name": "Nassarawa",
            "division": "state",
            "parent": "NG",
            "lat": 8.5474692,
            "lng": 7.71180030000005
        },
        {
            "code": "NG-NI",
            "name": "Niger",
            "division": "state",
            "parent": "NG",
            "lat": 9.081999,
            "lng": 8.675277000000051
        },
        {
            "code": "NG-OG",
            "name": "Ogun",
            "division": "state",
            "parent": "NG"
        },
        {
            "code": "NG-ON",
            "name": "Ondo",
            "division": "state",
            "parent": "NG",
            "lat": 7.088721,
            "lng": 4.838762999999972
        },
        {
            "code": "NG-OS",
            "name": "Osun",
            "division": "state",
            "parent": "NG",
            "lat": 7.983333,
            "lng": 5.083333000000039
        },
        {
            "code": "NG-OY",
            "name": "Oyo",
            "division": "state",
            "parent": "NG",
            "lat": 7.837154,
            "lng": 3.9346520000000282
        },
        {
            "code": "NG-PL",
            "name": "Plateau",
            "division": "state",
            "parent": "NG",
            "lat": 9.2350817,
            "lng": 9.723267299999975
        },
        {
            "code": "NG-RI",
            "name": "Rivers",
            "division": "state",
            "parent": "NG"
        },
        {
            "code": "NG-SO",
            "name": "Sokoto",
            "division": "state",
            "parent": "NG",
            "lat": 13.0666667,
            "lng": 5.233333300000027
        },
        {
            "code": "NG-TA",
            "name": "Taraba",
            "division": "state",
            "parent": "NG"
        },
        {
            "code": "NG-YO",
            "name": "Yobe",
            "division": "state",
            "parent": "NG"
        },
        {
            "code": "NG-ZA",
            "name": "Zamfara",
            "division": "state",
            "parent": "NG"
        }
    ]
}