{
    "name": "New Zealand",
    "alpha-2": "NZ",
    "alpha-3": "NZL",
    "country-code": "554",
    "region": "Oceania",
    "ISO3166-2": [
        {
            "code": "NZ-N",
            "name": "North Island",
            "division": "island",
            "parent": "NZ",
            "lat": -37.8965461,
            "lng": 175.60236429999998
        },
        {
            "code": "NZ-S",
            "name": "South Island",
            "division": "island",
            "parent": "NZ",
            "lat": -45.1526707,
            "lng": 169.89263329999994
        },
        {
            "code": "NZ-AUK",
            "name": "Auckland",
            "division": "regional council",
            "parent": "NZ-N",
            "lat": -36.8484597,
            "lng": 174.76333150000005
        },
        {
            "code": "NZ-BOP",
            "name": "Bay of Plenty",
            "division": "regional council",
            "parent": "NZ-N",
            "lat": -38.0933357,
            "lng": 176.41873080000005
        },
        {
            "code": "NZ-CAN",
            "name": "Canterbury",
            "division": "regional council",
            "parent": "NZ-S",
            "lat": -43.7542275,
            "lng": 171.16372449999994
        },
        {
            "code": "NZ-HKB",
            "name": "Hawke's Bay",
            "division": "regional council",
            "parent": "NZ-N",
            "lat": -39.7711616,
            "lng": 176.74163739999995
        },
        {
            "code": "NZ-MWT",
            "name": "Manawatu-Wanganui",
            "division": "regional council",
            "parent": "NZ-N",
            "lat": -39.7273356,
            "lng": 175.43755740000006
        },
        {
            "code": "NZ-NTL",
            "name": "Northland",
            "division": "regional council",
            "parent": "NZ-N",
            "lat": -35.5795461,
            "lng": 173.76240529999995
        },
        {
            "code": "NZ-OTA",
            "name": "Otago",
            "division": "regional council",
            "parent": "NZ-S",
            "lat": -44.8280041,
            "lng": 169.63452529999995
        },
        {
            "code": "NZ-STL",
            "name": "Southland",
            "division": "regional council",
            "parent": "NZ-S",
            "lat": -45.8626797,
            "lng": 167.97398950000002
        },
        {
            "code": "NZ-TKI",
            "name": "Taranaki",
            "division": "regional council",
            "parent": "NZ-N",
            "lat": -39.3538149,
            "lng": 174.43827209999995
        },
        {
            "code": "NZ-WKO",
            "name": "Waikato",
            "division": "regional council",
            "parent": "NZ-N",
            "lat": -37.7466618,
            "lng": 175.42129049999994
        },
        {
            "code": "NZ-WGN",
            "name": "Wellington",
            "division": "regional council",
            "parent": "NZ-N",
            "lat": -41.2924945,
            "lng": 174.7732353
        },
        {
            "code": "NZ-WTC",
            "name": "West Coast",
            "division": "regional council",
            "parent": "NZ-S",
            "lat": -42.4064185,
            "lng": 171.6911559
        },
        {
            "code": "NZ-GIS",
            "name": "Gisborne District",
            "division": "unitary authority",
            "parent": "NZ-N",
            "lat": -38.662334,
            "lng": 178.017649
        },
        {
            "code": "NZ-MBH",
            "name": "Marlborough District",
            "division": "unitary authority",
            "parent": "NZ-S",
            "lat": -41.57269,
            "lng": 173.42166129999998
        },
        {
            "code": "NZ-NSN",
            "name": "Nelson City",
            "division": "unitary authority",
            "parent": "NZ-S",
            "lat": -41.2690399,
            "lng": 173.28404139999998
        },
        {
            "code": "NZ-TAS",
            "name": "Tasman District",
            "division": "unitary authority",
            "parent": "NZ-S",
            "lat": -41.3423198,
            "lng": 173.1728948
        },
        {
            "code": "NZ-CIT",
            "name": "Chatham Islands Territory",
            "division": "special island authority",
            "parent": "NZ"
        }
    ]
}