{
    "name": "Panama",
    "alpha-2": "PA",
    "alpha-3": "PAN",
    "country-code": "591",
    "region": "Americas",
    "ISO3166-2": [
        {
            "code": "PA-1",
            "name": "Bocas del Toro",
            "division": "province",
            "parent": "PA",
            "lat": 9.335882,
            "lng": -82.25451099999998
        },
        {
            "code": "PA-4",
            "name": "Chiriqu\u00ed",
            "division": "province",
            "parent": "PA",
            "lat": 8.390787,
            "lng": -82.322113
        },
        {
            "code": "PA-2",
            "name": "Cocl\u00e9",
            "division": "province",
            "parent": "PA",
            "lat": 8.459104,
            "lng": -80.42829899999998
        },
        {
            "code": "PA-3",
            "name": "Col\u00f3n",
            "division": "province",
            "parent": "PA",
            "lat": 9.358577,
            "lng": -79.900015
        },
        {
            "code": "PA-5",
            "name": "Dari\u00e9n",
            "division": "province",
            "parent": "PA",
            "lat": 7.7361,
            "lng": -77.54719999999998
        },
        {
            "code": "PA-6",
            "name": "Herrera",
            "division": "province",
            "parent": "PA",
            "lat": 9.0938645,
            "lng": -79.40448700000002
        },
        {
            "code": "PA-7",
            "name": "Los Santos",
            "division": "province",
            "parent": "PA",
            "lat": 7.9328943,
            "lng": -80.41317800000002
        },
        {
            "code": "PA-8",
            "name": "Panam\u00e1",
            "division": "province",
            "parent": "PA",
            "lat": 8.994269,
            "lng": -79.51879200000002
        },
        {
            "code": "PA-9",
            "name": "Veraguas",
            "division": "province",
            "parent": "PA",
            "lat": 8.866667,
            "lng": -80.89999999999998
        },
        {
            "code": "PA-EM",
            "name": "Ember\u00e1",
            "division": "indigenous region",
            "parent": "PA"
        },
        {
            "code": "PA-KY",
            "name": "Kuna Yala",
            "division": "indigenous region",
            "parent": "PA",
            "lat": 37.8393332,
            "lng": -84.27001789999997
        },
        {
            "code": "PA-NB",
            "name": "Ng\u00f6be-Bugl\u00e9",
            "division": "indigenous region",
            "parent": "PA"
        }
    ]
}