{
    "name": "Portugal",
    "alpha-2": "PT",
    "alpha-3": "PRT",
    "country-code": "620",
    "region": "Europe",
    "ISO3166-2": [
        {
            "code": "PT-01",
            "name": "Aveiro",
            "division": "district",
            "parent": "PT",
            "lat": 40.6411848,
            "lng": -8.653616899999975
        },
        {
            "code": "PT-02",
            "name": "Beja",
            "division": "district",
            "parent": "PT",
            "lat": 38.0156245,
            "lng": -7.865234800000053
        },
        {
            "code": "PT-03",
            "name": "Braga",
            "division": "district",
            "parent": "PT",
            "lat": 41.5517605,
            "lng": -8.422903399999996
        },
        {
            "code": "PT-04",
            "name": "Bragan\u00e7a",
            "division": "district",
            "parent": "PT",
            "lat": 41.8071762,
            "lng": -6.759190799999942
        },
        {
            "code": "PT-05",
            "name": "Castelo Branco",
            "division": "district",
            "parent": "PT",
            "lat": 39.8238927,
            "lng": -7.49188509999999
        },
        {
            "code": "PT-06",
            "name": "Coimbra",
            "division": "district",
            "parent": "PT",
            "lat": 40.211491,
            "lng": -8.42920140000001
        },
        {
            "code": "PT-07",
            "name": "\u00c9vora",
            "division": "district",
            "parent": "PT",
            "lat": 38.570983,
            "lng": -7.9096022999999605
        },
        {
            "code": "PT-08",
            "name": "Faro",
            "division": "district",
            "parent": "PT",
            "lat": 37.0153597,
            "lng": -7.935113000000001
        },
        {
            "code": "PT-09",
            "name": "Guarda",
            "division": "district",
            "parent": "PT",
            "lat": 40.5371319,
            "lng": -7.267850199999998
        },
        {
            "code": "PT-10",
            "name": "Leiria",
            "division": "district",
            "parent": "PT",
            "lat": 39.7443404,
            "lng": -8.807249500000012
        },
        {
            "code": "PT-11",
            "name": "Lisboa",
            "division": "district",
            "parent": "PT",
            "lat": 38.7070538,
            "lng": -9.135488399999986
        },
        {
            "code": "PT-12",
            "name": "Portalegre",
            "division": "district",
            "parent": "PT",
            "lat": 39.2913968,
            "lng": -7.432345499999997
        },
        {
            "code": "PT-13",
            "name": "Porto",
            "division": "district",
            "parent": "PT",
            "lat": 41.149968,
            "lng": -8.610242599999992
        },
        {
            "code": "PT-14",
            "name": "Santar\u00e9m",
            "division": "district",
            "parent": "PT",
            "lat": 39.2361817,
            "lng": -8.68707500000005
        },
        {
            "code": "PT-15",
            "name": "Set\u00fabal",
            "division": "district",
            "parent": "PT",
            "lat": 38.5245145,
            "lng": -8.893065799999931
        },
        {
            "code": "PT-16",
            "name": "Viana do Castelo",
            "division": "district",
            "parent": "PT",
            "lat": 41.6945675,
            "lng": -8.830163200000015
        },
        {
            "code": "PT-17",
            "name": "Vila Real",
            "division": "district",
            "parent": "PT",
            "lat": 41.2958976,
            "lng": -7.746352800000068
        },
        {
            "code": "PT-18",
            "name": "Viseu",
            "division": "district",
            "parent": "PT",
            "lat": 40.6575445,
            "lng": -7.914279299999976
        },
        {
            "code": "PT-20",
            "name": "Regi\u00e3o Aut\u00f3noma dos A\u00e7ores",
            "division": "autonomous region",
            "parent": "PT"
        },
        {
            "code": "PT-30",
            "name": "Regi\u00e3o Aut\u00f3noma da Madeira",
            "division": "autonomous region",
            "parent": "PT"
        }
    ]
}