{
    "name": "Romania",
    "alpha-2": "RO",
    "alpha-3": "ROU",
    "country-code": "642",
    "region": "Europe",
    "ISO3166-2": [
        {
            "code": "RO-AB",
            "name": "Alba",
            "division": "department",
            "parent": "RO",
            "lat": 46.1558924,
            "lng": 23.555612099999962
        },
        {
            "code": "RO-AR",
            "name": "Arad",
            "division": "department",
            "parent": "RO",
            "lat": 46.1666667,
            "lng": 21.31666670000004
        },
        {
            "code": "RO-AG",
            "name": "Arge\u0219",
            "division": "department",
            "parent": "RO"
        },
        {
            "code": "RO-BC",
            "name": "Bac\u0103u",
            "division": "department",
            "parent": "RO",
            "lat": 46.571289,
            "lng": 26.925170999999978
        },
        {
            "code": "RO-BH",
            "name": "Bihor",
            "division": "department",
            "parent": "RO"
        },
        {
            "code": "RO-BN",
            "name": "Bistri\u021ba-N\u0103s\u0103ud",
            "division": "department",
            "parent": "RO",
            "lat": 47.2664094,
            "lng": 24.371108999999933
        },
        {
            "code": "RO-BT",
            "name": "Boto\u0219ani",
            "division": "department",
            "parent": "RO",
            "lat": 47.746231,
            "lng": 26.666809000000057
        },
        {
            "code": "RO-BV",
            "name": "Bra\u0219ov",
            "division": "department",
            "parent": "RO",
            "lat": 45.655651,
            "lng": 25.61080000000004
        },
        {
            "code": "RO-BR",
            "name": "Br\u0103ila",
            "division": "department",
            "parent": "RO",
            "lat": 45.2691944,
            "lng": 27.957472199999984
        },
        {
            "code": "RO-BZ",
            "name": "Buz\u0103u",
            "division": "department",
            "parent": "RO",
            "lat": 45.14806,
            "lng": 26.823339000000033
        },
        {
            "code": "RO-CS",
            "name": "Cara\u0219-Severin",
            "division": "department",
            "parent": "RO",
            "lat": 45.3240806,
            "lng": 21.878447499999993
        },
        {
            "code": "RO-CL",
            "name": "C\u0103l\u0103ra\u0219i",
            "division": "department",
            "parent": "RO",
            "lat": 44.202016,
            "lng": 27.330038999999942
        },
        {
            "code": "RO-CJ",
            "name": "Cluj",
            "division": "department",
            "parent": "RO",
            "lat": 46.777248,
            "lng": 23.59988999999996
        },
        {
            "code": "RO-CT",
            "name": "Constan\u021ba",
            "division": "department",
            "parent": "RO",
            "lat": 44.1733333,
            "lng": 28.6383333
        },
        {
            "code": "RO-CV",
            "name": "Covasna",
            "division": "department",
            "parent": "RO",
            "lat": 45.8517,
            "lng": 26.18291099999999
        },
        {
            "code": "RO-DB",
            "name": "D\u00e2mbovi\u021ba",
            "division": "department",
            "parent": "RO"
        },
        {
            "code": "RO-DJ",
            "name": "Dolj",
            "division": "department",
            "parent": "RO",
            "lat": 44.1623022,
            "lng": 23.632505400000014
        },
        {
            "code": "RO-GL",
            "name": "Gala\u021bi",
            "division": "department",
            "parent": "RO",
            "lat": 45.42572,
            "lng": 28.031044000000065
        },
        {
            "code": "RO-GR",
            "name": "Giurgiu",
            "division": "department",
            "parent": "RO",
            "lat": 43.900408,
            "lng": 25.97166100000004
        },
        {
            "code": "RO-GJ",
            "name": "Gorj",
            "division": "department",
            "parent": "RO",
            "lat": 45.0194278,
            "lng": 23.524904300000003
        },
        {
            "code": "RO-HR",
            "name": "Harghita",
            "division": "department",
            "parent": "RO"
        },
        {
            "code": "RO-HD",
            "name": "Hunedoara",
            "division": "department",
            "parent": "RO",
            "lat": 45.76643,
            "lng": 22.920679000000064
        },
        {
            "code": "RO-IL",
            "name": "Ialomi\u021ba",
            "division": "department",
            "parent": "RO",
            "lat": 44.603107,
            "lng": 27.501220099999955
        },
        {
            "code": "RO-IS",
            "name": "Ia\u0219i",
            "division": "department",
            "parent": "RO",
            "lat": 47.1569444,
            "lng": 27.590277799999967
        },
        {
            "code": "RO-IF",
            "name": "Ilfov",
            "division": "department",
            "parent": "RO"
        },
        {
            "code": "RO-MM",
            "name": "Maramure\u0219",
            "division": "department",
            "parent": "RO"
        },
        {
            "code": "RO-MH",
            "name": "Mehedin\u021bi",
            "division": "department",
            "parent": "RO",
            "lat": 44.509941,
            "lng": 22.575150000000008
        },
        {
            "code": "RO-MS",
            "name": "Mure\u0219",
            "division": "department",
            "parent": "RO",
            "lat": 46.5569904,
            "lng": 24.672321499999953
        },
        {
            "code": "RO-NT",
            "name": "Neam\u021b",
            "division": "department",
            "parent": "RO"
        },
        {
            "code": "RO-OT",
            "name": "Olt",
            "division": "department",
            "parent": "RO"
        },
        {
            "code": "RO-PH",
            "name": "Prahova",
            "division": "department",
            "parent": "RO"
        },
        {
            "code": "RO-SM",
            "name": "Satu Mare",
            "division": "department",
            "parent": "RO",
            "lat": 47.792091,
            "lng": 22.88518899999997
        },
        {
            "code": "RO-SJ",
            "name": "S\u0103laj",
            "division": "department",
            "parent": "RO"
        },
        {
            "code": "RO-SB",
            "name": "Sibiu",
            "division": "department",
            "parent": "RO",
            "lat": 45.787441,
            "lng": 24.143258999999944
        },
        {
            "code": "RO-SV",
            "name": "Suceava",
            "division": "department",
            "parent": "RO",
            "lat": 47.6513889,
            "lng": 26.25555559999998
        },
        {
            "code": "RO-TR",
            "name": "Teleorman",
            "division": "department",
            "parent": "RO",
            "lat": 46.7819641,
            "lng": 23.622656499999948
        },
        {
            "code": "RO-TM",
            "name": "Timi\u0219",
            "division": "department",
            "parent": "RO"
        },
        {
            "code": "RO-TL",
            "name": "Tulcea",
            "division": "department",
            "parent": "RO",
            "lat": 45.179932,
            "lng": 28.80633899999998
        },
        {
            "code": "RO-VS",
            "name": "Vaslui",
            "division": "department",
            "parent": "RO",
            "lat": 46.6383333,
            "lng": 27.72916669999995
        },
        {
            "code": "RO-VL",
            "name": "V\u00e2lcea",
            "division": "department",
            "parent": "RO",
            "lat": 45.1051067,
            "lng": 24.36411380000004
        },
        {
            "code": "RO-VN",
            "name": "Vrancea",
            "division": "department",
            "parent": "RO"
        },
        {
            "code": "RO-B",
            "name": "Bucure\u0219ti",
            "division": "municipality",
            "parent": "RO",
            "lat": 44.437711,
            "lng": 26.097366999999963
        }
    ]
}