{
    "name": "Saudi Arabia",
    "alpha-2": "SA",
    "alpha-3": "SAU",
    "country-code": "682",
    "region": "Asia",
    "ISO3166-2": [
        {
            "code": "SA-11",
            "name": "Al B\u0101hah",
            "division": "province",
            "parent": "SA",
            "lat": 28.396757,
            "lng": 45.927276000000006
        },
        {
            "code": "SA-08",
            "name": "Al \u1e24ud\u016bd ash Sham\u0101liyah",
            "division": "province",
            "parent": "SA",
            "lat": 32.3182314,
            "lng": -86.90229799999997
        },
        {
            "code": "SA-12",
            "name": "Al Jawf",
            "division": "province",
            "parent": "SA",
            "lat": 29.802988,
            "lng": 39.87931819999994
        },
        {
            "code": "SA-03",
            "name": "Al Mad\u012bnah",
            "division": "province",
            "parent": "SA",
            "lat": 24.460899,
            "lng": 39.62018999999998
        },
        {
            "code": "SA-05",
            "name": "Al Qa\u015f\u012bm",
            "division": "province",
            "parent": "SA",
            "lat": 21.4662153,
            "lng": 39.20090389999996
        },
        {
            "code": "SA-01",
            "name": "Ar Riy\u0101\u1e0d",
            "division": "province",
            "parent": "SA",
            "lat": 24.0062801,
            "lng": 38.190596700000015
        },
        {
            "code": "SA-04",
            "name": "Ash Sharq\u012byah",
            "division": "province",
            "parent": "SA",
            "lat": 26.4200197,
            "lng": 50.0994637
        },
        {
            "code": "SA-14",
            "name": "`As\u012br",
            "division": "province",
            "parent": "SA",
            "lat": 24.6204049,
            "lng": 46.69755329999998
        },
        {
            "code": "SA-06",
            "name": "\u1e24\u0101'il",
            "division": "province",
            "parent": "SA",
            "lat": 21.5189104,
            "lng": 39.16984320000006
        },
        {
            "code": "SA-09",
            "name": "J\u012bzan",
            "division": "province",
            "parent": "SA",
            "lat": 21.2680711,
            "lng": 40.42371449999996
        },
        {
            "code": "SA-02",
            "name": "Makkah",
            "division": "province",
            "parent": "SA",
            "lat": 21.4273779,
            "lng": 39.81483830000002
        },
        {
            "code": "SA-10",
            "name": "Najr\u0101n",
            "division": "province",
            "parent": "SA",
            "lat": 26.2718703,
            "lng": 50.18619490000003
        },
        {
            "code": "SA-07",
            "name": "Tab\u016bk",
            "division": "province",
            "parent": "SA",
            "lat": 26.2733419,
            "lng": 50.19038780000005
        }
    ]
}