{
    "name": "Taiwan",
    "alpha-2": "TW",
    "alpha-3": "TWN",
    "country-code": "158",
    "region": "Asia",
    "ISO3166-2": [
        {
            "code": "TW-CHA",
            "name": "Changhua",
            "division": "district",
            "parent": "TW",
            "lat": 24.0716583,
            "lng": 120.5624474
        },
        {
            "code": "TW-CYQ",
            "name": "Chiayi",
            "division": "district",
            "parent": "TW",
            "lat": 23.4643073,
            "lng": 120.39614860000006
        },
        {
            "code": "TW-HSQ",
            "name": "Hsinchu",
            "division": "district",
            "parent": "TW",
            "lat": 24.816668,
            "lng": 120.93333400000006
        },
        {
            "code": "TW-HUA",
            "name": "Hualien",
            "division": "district",
            "parent": "TW",
            "lat": 23.9910732,
            "lng": 121.61119489999999
        },
        {
            "code": "TW-ILA",
            "name": "Ilan",
            "division": "district",
            "parent": "TW"
        },
        {
            "code": "TW-KHQ",
            "name": "Kaohsiung",
            "division": "district",
            "parent": "TW"
        },
        {
            "code": "TW-MIA",
            "name": "Miaoli",
            "division": "district",
            "parent": "TW",
            "lat": 24.5711502,
            "lng": 120.81543579999993
        },
        {
            "code": "TW-NAN",
            "name": "Nantou",
            "division": "district",
            "parent": "TW",
            "lat": 23.9179637,
            "lng": 120.67750539999997
        },
        {
            "code": "TW-PEN",
            "name": "Penghu",
            "division": "district",
            "parent": "TW",
            "lat": 23.480649,
            "lng": 119.51761499999998
        },
        {
            "code": "TW-PIF",
            "name": "Pingtung",
            "division": "district",
            "parent": "TW",
            "lat": 22.6558442,
            "lng": 120.47032579999996
        },
        {
            "code": "TW-TXQ",
            "name": "Taichung",
            "division": "district",
            "parent": "TW",
            "lat": 24.2332076,
            "lng": 120.94173679999994
        },
        {
            "code": "TW-TNQ",
            "name": "Tainan",
            "division": "district",
            "parent": "TW"
        },
        {
            "code": "TW-TPQ",
            "name": "Taipei",
            "division": "district",
            "parent": "TW",
            "lat": 25.065494,
            "lng": 121.4256345
        },
        {
            "code": "TW-TTT",
            "name": "Taitung",
            "division": "district",
            "parent": "TW",
            "lat": 22.7546009,
            "lng": 121.11375440000006
        },
        {
            "code": "TW-TAO",
            "name": "Taoyuan",
            "division": "district",
            "parent": "TW",
            "lat": 24.9934099,
            "lng": 121.29696739999997
        },
        {
            "code": "TW-YUN",
            "name": "Yunlin",
            "division": "district",
            "parent": "TW",
            "lat": 23.6111111,
            "lng": 120.73083329999997
        },
        {
            "code": "TW-CYI",
            "name": "Chiay City",
            "division": "municipality",
            "parent": "TW"
        },
        {
            "code": "TW-HSZ",
            "name": "Hsinchui City",
            "division": "municipality",
            "parent": "TW"
        },
        {
            "code": "TW-KEE",
            "name": "Keelung City",
            "division": "municipality",
            "parent": "TW",
            "lat": 25.1089809,
            "lng": 121.70814540000003
        },
        {
            "code": "TW-TXG",
            "name": "Taichung City",
            "division": "municipality",
            "parent": "TW",
            "lat": 24.2332076,
            "lng": 120.94173679999994
        },
        {
            "code": "TW-TNN",
            "name": "Tainan City",
            "division": "municipality",
            "parent": "TW",
            "lat": 23.1416985,
            "lng": 120.25127279999992
        },
        {
            "code": "TW-KHH",
            "name": "Kaohsiung City",
            "division": "special municipality",
            "parent": "TW",
            "lat": 23.0108714,
            "lng": 120.66600440000002
        },
        {
            "code": "TW-TPE",
            "name": "Taipei City",
            "division": "special municipality",
            "parent": "TW",
            "lat": 25.091075,
            "lng": 121.55983449999997
        }
    ]
}