{
    "name": "Ukraine",
    "alpha-2": "UA",
    "alpha-3": "UKR",
    "country-code": "804",
    "region": "Europe",
    "ISO3166-2": [
        {
            "code": "UA-71",
            "name": "Cherkas'ka Oblast'",
            "division": "province",
            "parent": "UA",
            "lat": 49.856339,
            "lng": 24.05855900000006
        },
        {
            "code": "UA-74",
            "name": "Chernihivs'ka Oblast'",
            "division": "province",
            "parent": "UA"
        },
        {
            "code": "UA-77",
            "name": "Chernivets'ka Oblast'",
            "division": "province",
            "parent": "UA",
            "lat": 49.536449,
            "lng": 25.59960000000001
        },
        {
            "code": "UA-12",
            "name": "Dnipropetrovs'ka Oblast'",
            "division": "province",
            "parent": "UA",
            "lat": 48.612025,
            "lng": 35.253169999999955
        },
        {
            "code": "UA-14",
            "name": "Donets'ka Oblast'",
            "division": "province",
            "parent": "UA",
            "lat": 47.964688,
            "lng": 37.619545000000016
        },
        {
            "code": "UA-26",
            "name": "Ivano-Frankivs'ka Oblast'",
            "division": "province",
            "parent": "UA",
            "lat": 48.887218,
            "lng": 24.69095100000004
        },
        {
            "code": "UA-63",
            "name": "Kharkivs'ka Oblast'",
            "division": "province",
            "parent": "UA",
            "lat": 49.9434,
            "lng": 36.24696599999993
        },
        {
            "code": "UA-65",
            "name": "Khersons'ka Oblast'",
            "division": "province",
            "parent": "UA",
            "lat": 46.955388,
            "lng": 32.053935000000024
        },
        {
            "code": "UA-68",
            "name": "Khmel'nyts'ka Oblast'",
            "division": "province",
            "parent": "UA",
            "lat": 48.934872,
            "lng": 24.725594
        },
        {
            "code": "UA-35",
            "name": "Kirovohrads'ka Oblast'",
            "division": "province",
            "parent": "UA"
        },
        {
            "code": "UA-32",
            "name": "Ky\u00efvs'ka Oblast'",
            "division": "province",
            "parent": "UA",
            "lat": 46.449734,
            "lng": 30.702373999999963
        },
        {
            "code": "UA-09",
            "name": "Luhans'ka Oblast'",
            "division": "province",
            "parent": "UA"
        },
        {
            "code": "UA-46",
            "name": "L'vivs'ka Oblast'",
            "division": "province",
            "parent": "UA",
            "lat": 49.84378,
            "lng": 24.073392000000013
        },
        {
            "code": "UA-48",
            "name": "Mykola\u00efvs'ka Oblast'",
            "division": "province",
            "parent": "UA",
            "lat": 46.960282,
            "lng": 32.00698399999999
        },
        {
            "code": "UA-51",
            "name": "Odes'ka Oblast'",
            "division": "province",
            "parent": "UA",
            "lat": 46.537133,
            "lng": 30.722668999999996
        },
        {
            "code": "UA-53",
            "name": "Poltavs'ka Oblast'",
            "division": "province",
            "parent": "UA",
            "lat": 49.109699,
            "lng": 33.45327099999997
        },
        {
            "code": "UA-56",
            "name": "Rivnens'ka Oblast'",
            "division": "province",
            "parent": "UA",
            "lat": 50.743701,
            "lng": 25.378025999999977
        },
        {
            "code": "UA-59",
            "name": "Sums 'ka Oblast'",
            "division": "province",
            "parent": "UA",
            "lat": 50.902667,
            "lng": 34.84256099999993
        },
        {
            "code": "UA-61",
            "name": "Ternopil's'ka Oblast'",
            "division": "province",
            "parent": "UA",
            "lat": 46.844721,
            "lng": 32.02055399999995
        },
        {
            "code": "UA-05",
            "name": "Vinnyts'ka Oblast'",
            "division": "province",
            "parent": "UA",
            "lat": 48.931722,
            "lng": 24.731788999999935
        },
        {
            "code": "UA-07",
            "name": "Volyns'ka Oblast'",
            "division": "province",
            "parent": "UA",
            "lat": 49.552029,
            "lng": 25.557800000000043
        },
        {
            "code": "UA-21",
            "name": "Zakarpats'ka Oblast'",
            "division": "province",
            "parent": "UA",
            "lat": 48.626452,
            "lng": 22.279174000000012
        },
        {
            "code": "UA-23",
            "name": "Zaporiz'ka Oblast'",
            "division": "province",
            "parent": "UA",
            "lat": 47.812937,
            "lng": 35.04710699999998
        },
        {
            "code": "UA-18",
            "name": "Zhytomyrs'ka Oblast'",
            "division": "province",
            "parent": "UA",
            "lat": 50.2633,
            "lng": 28.68783099999996
        },
        {
            "code": "UA-43",
            "name": "Respublika Krym",
            "division": "autonomous republic",
            "parent": "UA",
            "lat": 45.3869444,
            "lng": 36.57805559999997
        },
        {
            "code": "UA-30",
            "name": "Ky\u00efvs'ka mis'ka rada",
            "division": "city",
            "parent": "UA"
        },
        {
            "code": "UA-40",
            "name": "Sevastopol",
            "division": "city",
            "parent": "UA",
            "lat": 44.508851,
            "lng": 33.60050899999999
        }
    ]
}