{
    "name": "United States",
    "alpha-2": "US",
    "alpha-3": "USA",
    "country-code": "840",
    "region": "Americas",
    "ISO3166-2": [
        {
            "code": "US-AL",
            "name": "Alabama",
            "division": "state",
            "parent": "US",
            "lat": 32.3182314,
            "lng": -86.90229799999997
        },
        {
            "code": "US-AK",
            "name": "Alaska",
            "division": "state",
            "parent": "US",
            "lat": 63.588753,
            "lng": -154.4930619
        },
        {
            "code": "US-AZ",
            "name": "Arizona",
            "division": "state",
            "parent": "US",
            "lat": 34.0489281,
            "lng": -111.09373110000001
        },
        {
            "code": "US-AR",
            "name": "Arkansas",
            "division": "state",
            "parent": "US",
            "lat": 34.2354138,
            "lng": -91.28910359999998
        },
        {
            "code": "US-CA",
            "name": "California",
            "division": "state",
            "parent": "US",
            "lat": 34.1270546,
            "lng": -117.34108100000003
        },
        {
            "code": "US-CO",
            "name": "Colorado",
            "division": "state",
            "parent": "US",
            "lat": 39.5500507,
            "lng": -105.78206740000002
        },
        {
            "code": "US-CT",
            "name": "Connecticut",
            "division": "state",
            "parent": "US",
            "lat": 41.6032207,
            "lng": -73.08774900000003
        },
        {
            "code": "US-DE",
            "name": "Delaware",
            "division": "state",
            "parent": "US",
            "lat": 38.9108325,
            "lng": -75.52766989999998
        },
        {
            "code": "US-FL",
            "name": "Florida",
            "division": "state",
            "parent": "US",
            "lat": 27.6648274,
            "lng": -81.51575350000002
        },
        {
            "code": "US-GA",
            "name": "Georgia",
            "division": "state",
            "parent": "US",
            "lat": 32.1574351,
            "lng": -82.90712300000001
        },
        {
            "code": "US-HI",
            "name": "Hawaii",
            "division": "state",
            "parent": "US",
            "lat": 19.8967662,
            "lng": -155.58278180000002
        },
        {
            "code": "US-ID",
            "name": "Idaho",
            "division": "state",
            "parent": "US",
            "lat": 45.9019541,
            "lng": -115.7237432
        },
        {
            "code": "US-IL",
            "name": "Illinois",
            "division": "state",
            "parent": "US",
            "lat": 40.6331249,
            "lng": -89.39852830000001
        },
        {
            "code": "US-IN",
            "name": "Indiana",
            "division": "state",
            "parent": "US",
            "lat": 40.5512165,
            "lng": -85.60236429999998
        },
        {
            "code": "US-IA",
            "name": "Iowa",
            "division": "state",
            "parent": "US",
            "lat": 41.6624604,
            "lng": -92.06651970000001
        },
        {
            "code": "US-KS",
            "name": "Kansas",
            "division": "state",
            "parent": "US",
            "lat": 39.011902,
            "lng": -98.48424649999998
        },
        {
            "code": "US-KY",
            "name": "Kentucky",
            "division": "state",
            "parent": "US",
            "lat": 37.8393332,
            "lng": -84.27001789999997
        },
        {
            "code": "US-LA",
            "name": "Louisiana",
            "division": "state",
            "parent": "US",
            "lat": 31.2448234,
            "lng": -92.14502449999998
        },
        {
            "code": "US-ME",
            "name": "Maine",
            "division": "state",
            "parent": "US",
            "lat": 46.82,
            "lng": -67.92361
        },
        {
            "code": "US-MD",
            "name": "Maryland",
            "division": "state",
            "parent": "US",
            "lat": 39.0457549,
            "lng": -76.6412712
        },
        {
            "code": "US-MA",
            "name": "Massachusetts",
            "division": "state",
            "parent": "US",
            "lat": 42.4072107,
            "lng": -71.38243740000001
        },
        {
            "code": "US-MI",
            "name": "Michigan",
            "division": "state",
            "parent": "US",
            "lat": 42.3288623,
            "lng": -83.12066649999997
        },
        {
            "code": "US-MN",
            "name": "Minnesota",
            "division": "state",
            "parent": "US",
            "lat": 46.729553,
            "lng": -94.68589980000002
        },
        {
            "code": "US-MS",
            "name": "Mississippi",
            "division": "state",
            "parent": "US",
            "lat": 32.3546679,
            "lng": -89.39852830000001
        },
        {
            "code": "US-MO",
            "name": "Missouri",
            "division": "state",
            "parent": "US",
            "lat": 37.9642529,
            "lng": -91.8318334
        },
        {
            "code": "US-MT",
            "name": "Montana",
            "division": "state",
            "parent": "US",
            "lat": 46.8796822,
            "lng": -110.36256579999997
        },
        {
            "code": "US-NE",
            "name": "Nebraska",
            "division": "state",
            "parent": "US",
            "lat": 41.4925374,
            "lng": -99.90181310000003
        },
        {
            "code": "US-NV",
            "name": "Nevada",
            "division": "state",
            "parent": "US",
            "lat": 38.8026097,
            "lng": -116.41938900000002
        },
        {
            "code": "US-NH",
            "name": "New Hampshire",
            "division": "state",
            "parent": "US",
            "lat": 43.1938516,
            "lng": -71.57239529999998
        },
        {
            "code": "US-NJ",
            "name": "New Jersey",
            "division": "state",
            "parent": "US",
            "lat": 40.0583238,
            "lng": -74.4056612
        },
        {
            "code": "US-NM",
            "name": "New Mexico",
            "division": "state",
            "parent": "US",
            "lat": 34.9727305,
            "lng": -105.03236349999997
        },
        {
            "code": "US-NY",
            "name": "New York",
            "division": "state",
            "parent": "US",
            "lat": 40.7143528,
            "lng": -74.0059731
        },
        {
            "code": "US-NC",
            "name": "North Carolina",
            "division": "state",
            "parent": "US",
            "lat": 35.7595731,
            "lng": -79.01929970000003
        },
        {
            "code": "US-ND",
            "name": "North Dakota",
            "division": "state",
            "parent": "US",
            "lat": 47.5514926,
            "lng": -101.00201190000001
        },
        {
            "code": "US-OH",
            "name": "Ohio",
            "division": "state",
            "parent": "US",
            "lat": 38.6257264,
            "lng": -82.23659809999998
        },
        {
            "code": "US-OK",
            "name": "Oklahoma",
            "division": "state",
            "parent": "US",
            "lat": 35.4675602,
            "lng": -97.51642759999999
        },
        {
            "code": "US-OR",
            "name": "Oregon",
            "division": "state",
            "parent": "US",
            "lat": 43.8041334,
            "lng": -120.55420119999997
        },
        {
            "code": "US-PA",
            "name": "Pennsylvania",
            "division": "state",
            "parent": "US",
            "lat": 41.2033216,
            "lng": -77.19452469999999
        },
        {
            "code": "US-RI",
            "name": "Rhode Island",
            "division": "state",
            "parent": "US",
            "lat": 41.5800945,
            "lng": -71.4774291
        },
        {
            "code": "US-SC",
            "name": "South Carolina",
            "division": "state",
            "parent": "US",
            "lat": 33.836081,
            "lng": -81.1637245
        },
        {
            "code": "US-SD",
            "name": "South Dakota",
            "division": "state",
            "parent": "US",
            "lat": 43.9695148,
            "lng": -99.90181310000003
        },
        {
            "code": "US-TN",
            "name": "Tennessee",
            "division": "state",
            "parent": "US",
            "lat": 35.5174913,
            "lng": -86.5804473
        },
        {
            "code": "US-TX",
            "name": "Texas",
            "division": "state",
            "parent": "US",
            "lat": 31.9685988,
            "lng": -99.90181310000003
        },
        {
            "code": "US-UT",
            "name": "Utah",
            "division": "state",
            "parent": "US",
            "lat": 39.3209801,
            "lng": -111.09373110000001
        },
        {
            "code": "US-VT",
            "name": "Vermont",
            "division": "state",
            "parent": "US",
            "lat": 44.5588028,
            "lng": -72.57784149999998
        },
        {
            "code": "US-VA",
            "name": "Virginia",
            "division": "state",
            "parent": "US",
            "lat": 37.4315734,
            "lng": -78.65689420000001
        },
        {
            "code": "US-WA",
            "name": "Washington",
            "division": "state",
            "parent": "US",
            "lat": 47.7510741,
            "lng": -120.74013860000002
        },
        {
            "code": "US-WV",
            "name": "West Virginia",
            "division": "state",
            "parent": "US",
            "lat": 38.5976262,
            "lng": -80.45490259999997
        },
        {
            "code": "US-WI",
            "name": "Wisconsin",
            "division": "state",
            "parent": "US",
            "lat": 43.7844397,
            "lng": -88.78786780000001
        },
        {
            "code": "US-WY",
            "name": "Wyoming",
            "division": "state",
            "parent": "US",
            "lat": 41.4774748,
            "lng": -105.63665679999997
        },
        {
            "code": "US-DC",
            "name": "District of Columbia",
            "division": "district",
            "parent": "US",
            "lat": 38.8951118,
            "lng": -77.0363658
        },
        {
            "code": "US-AS",
            "name": "American Samoa",
            "division": "outlying area",
            "parent": "US"
        },
        {
            "code": "US-GU",
            "name": "Guam",
            "division": "outlying area",
            "parent": "US",
            "lat": 13.4666808,
            "lng": 144.74546850000002
        },
        {
            "code": "US-MP",
            "name": "Northern Mariana Islands",
            "division": "outlying area",
            "parent": "US",
            "lat": 15.2186754,
            "lng": 145.7302138
        },
        {
            "code": "US-PR",
            "name": "Puerto Rico",
            "division": "outlying area",
            "parent": "US",
            "lat": 31.75012,
            "lng": -106.48776099999998
        },
        {
            "code": "US-UM",
            "name": "United States Minor Outlying Islands",
            "division": "outlying area",
            "parent": "US"
        },
        {
            "code": "US-VI",
            "name": "Virgin Islands",
            "division": "outlying area",
            "parent": "US",
            "lat": 18.3404431,
            "lng": -64.917126
        }
    ]
}