{
    "name": "Zambia",
    "alpha-2": "ZM",
    "alpha-3": "ZMB",
    "country-code": "894",
    "region": "Africa",
    "ISO3166-2": [
        {
            "code": "ZM-02",
            "name": "Central",
            "division": "province",
            "parent": "ZM",
            "lat": -12.8240144,
            "lng": 28.228057799999988
        },
        {
            "code": "ZM-08",
            "name": "Copperbelt",
            "division": "province",
            "parent": "ZM",
            "lat": -12.970351,
            "lng": 28.650541299999986
        },
        {
            "code": "ZM-03",
            "name": "Eastern",
            "division": "province",
            "parent": "ZM"
        },
        {
            "code": "ZM-04",
            "name": "Luapula",
            "division": "province",
            "parent": "ZM",
            "lat": -9.766667,
            "lng": 28.883332999999993
        },
        {
            "code": "ZM-09",
            "name": "Lusaka",
            "division": "province",
            "parent": "ZM",
            "lat": -15.408193,
            "lng": 28.287166999999954
        },
        {
            "code": "ZM-05",
            "name": "Northern",
            "division": "province",
            "parent": "ZM"
        },
        {
            "code": "ZM-06",
            "name": "North-Western",
            "division": "province",
            "parent": "ZM"
        },
        {
            "code": "ZM-07",
            "name": "Southern (Zambia)",
            "division": "province",
            "parent": "ZM",
            "lat": -17.8446645,
            "lng": 25.86983209999994
        },
        {
            "code": "ZM-01",
            "name": "Western",
            "division": "province",
            "parent": "ZM"
        }
    ]
}