{
    "alpha-2": "FR",
    "alpha-3": "FRA",
    "numeric": 250,
    "capital": "Paris",
    "currency": "EUR",
    "languages": [
        "fr"
    ],
    "flag-icon": "\ud83c\uddeb\ud83c\uddf7",
    "names": {
        "geonames": "France",
        "en": "France",
        "ar": "\u0641\u0631\u0646\u0633\u0627",
        "de": "Frankreich",
        "es": "Francia",
        "fr": "France",
        "it": "Francia",
        "ru": "\u0424\u0440\u0430\u043d\u0446\u0438\u044f",
        "zh": "\u6cd5\u56fd",
        "he": "\u05e6\u05e8\u05e4\u05ea",
        "hi": "\u092b\u093c\u094d\u0930\u093e\u0928\u094d\u0938",
        "ja": "\u30d5\u30e9\u30f3\u30b9",
        "pt": "Fran\u00e7a"
    },
    "ISO3166-2": {
        "01": {
            "name": "Ain",
            "code": "01",
            "division": "metropolitan department",
            "parent": "FR-V",
            "lat": 46.2021771,
            "lng": 5.22212669999999
        },
        "02": {
            "name": "Aisne",
            "code": "02",
            "division": "metropolitan department",
            "parent": "FR-S",
            "lat": 49.3902005,
            "lng": 3.6531661000000213
        },
        "03": {
            "name": "Allier",
            "code": "03",
            "division": "metropolitan department",
            "parent": "FR-C",
            "lat": 45.7611741,
            "lng": 3.4698421000000508
        },
        "04": {
            "name": "Alpes-de-Haute-Provence",
            "code": "04",
            "division": "metropolitan department",
            "parent": "FR-U",
            "lat": 44.0922657,
            "lng": 6.238237499999968
        },
        "05": {
            "name": "Hautes-Alpes",
            "code": "05",
            "division": "metropolitan department",
            "parent": "FR-U",
            "lat": 44.5577991,
            "lng": 6.07692499999996
        },
        "06": {
            "name": "Alpes-Maritimes",
            "code": "06",
            "division": "metropolitan department",
            "parent": "FR-U",
            "lat": 44.25,
            "lng": 7.166666699999951
        },
        "07": {
            "name": "Ard\u00e8che",
            "code": "07",
            "division": "metropolitan department",
            "parent": "FR-V",
            "lat": 44.4723964,
            "lng": 4.353810100000032
        },
        "08": {
            "name": "Ardennes",
            "code": "08",
            "division": "metropolitan department",
            "parent": "FR-G",
            "lat": 50.0904445,
            "lng": 4.831505200000038
        },
        "09": {
            "name": "Ari\u00e8ge",
            "code": "09",
            "division": "metropolitan department",
            "parent": "FR-N",
            "lat": 43.0439483,
            "lng": 1.6161019999999553
        },
        "2A": {
            "name": "Corse-du-Sud",
            "code": "2A",
            "division": "metropolitan department",
            "parent": "FR-H",
            "lat": 42.0396042,
            "lng": 9.012892599999986
        },
        "2B": {
            "name": "Haute-Corse",
            "code": "2B",
            "division": "metropolitan department",
            "parent": "FR-H",
            "lat": 42.7028158,
            "lng": 9.448214399999983
        },
        "A": {
            "name": "Alsace",
            "code": "A",
            "division": "metropolitan region",
            "parent": "FR",
            "lat": 48.3181795,
            "lng": 7.441624100000013
        },
        "ARA": {
            "name": "Auvergne-Rh\u00f4ne-Alpes",
            "code": "ARA",
            "names": {
                "geonames": "Auvergne-Rhone-Alpes",
                "en": "Auvergne-Rh\u00f4ne-Alpes"
            },
            "division": null,
            "parent": null,
            "lat": null,
            "lng": null
        },
        "B": {
            "name": "Aquitaine",
            "code": "B",
            "division": "metropolitan region",
            "parent": "FR",
            "lat": 44.7002222,
            "lng": -0.2995785000000524
        },
        "BFC": {
            "name": "Bourgogne-Franche-Comt\u00e9",
            "code": "BFC",
            "names": {
                "geonames": "Bourgogne-Franche-Comte",
                "en": "Bourgogne-Franche-Comt\u00e9"
            },
            "division": null,
            "parent": null,
            "lat": null,
            "lng": null
        },
        "BL": {
            "name": "Saint-Barth\u00e9lemy",
            "code": "BL",
            "division": "overseas territorial collectivity",
            "parent": "FR",
            "lat": 48.0843978,
            "lng": -2.044909999999959
        },
        "C": {
            "name": "Auvergne",
            "code": "C",
            "division": "metropolitan region",
            "parent": "FR",
            "lat": 45.7032695,
            "lng": 3.344853599999965
        },
        "CP": {
            "name": "Clipperton",
            "code": "CP",
            "division": "dependency",
            "parent": "FR"
        },
        "D": {
            "name": "Bourgogne",
            "code": "D",
            "division": "metropolitan region",
            "parent": "FR",
            "lat": 46.3336759,
            "lng": 4.621446900000024
        },
        "E": {
            "name": "Brittany",
            "code": "E",
            "names": {
                "geonames": "Brittany",
                "ru": "\u0411\u0440\u0435\u0442\u0430\u043d\u044c",
                "ar": "\u0628\u0631\u064a\u062a\u0627\u0646\u064a",
                "de": "Bretagne",
                "en": "Brittany",
                "fr": "R\u00e9gion Bretagne",
                "it": "Bretagna",
                "zh": "\u043a\u0438\u0442\u0430\u0439\u0441\u043a\u0438\u0439"
            },
            "division": "metropolitan region",
            "parent": "FR",
            "lat": 48.2020471,
            "lng": -2.93264350000004
        },
        "F": {
            "name": "Centre Region, France",
            "code": "F",
            "names": {
                "geonames": "Centre",
                "ru": "\u0426\u0435\u043d\u0442\u0440",
                "ar": "\u0633\u0627\u0646\u062a\u0631",
                "de": "Centre",
                "en": "Centre Region",
                "es": "Centro",
                "fr": "R\u00e9gion Centre",
                "it": "Centro",
                "zh": "\u4e2d\u592e"
            },
            "division": "metropolitan region",
            "parent": "FR",
            "lat": 47.7515686,
            "lng": 1.6750630999999885
        },
        "G": {
            "name": "Champagne-Ardenne",
            "code": "G",
            "division": "metropolitan region",
            "parent": "FR",
            "lat": 48.7934092,
            "lng": 4.472524900000053
        },
        "GES": {
            "name": "Grand Est",
            "code": "GES",
            "names": {
                "geonames": "Grand Est",
                "en": "Grand Est"
            },
            "division": null,
            "parent": null,
            "lat": null,
            "lng": null
        },
        "GF": {
            "name": "Guyane",
            "code": "GF",
            "division": "overseas region\/department",
            "parent": "FR"
        },
        "GUA": {
            "name": "Guadeloupe",
            "code": "GUA",
            "division": "overseas region\/department",
            "parent": "FR",
            "lat": 16.995971,
            "lng": -62.06764099999998
        },
        "H": {
            "name": "Corsica",
            "code": "H",
            "names": {
                "geonames": "Corsica",
                "ru": "\u041a\u043e\u0440\u0441\u0438\u043a\u0430",
                "ar": "\u0643\u0648\u0631\u0633\u064a\u0643\u0627",
                "de": "Korsika",
                "en": "Corsica",
                "es": "C\u00f3rcega",
                "fr": "Corse",
                "it": "Corsica",
                "zh": "\u79d1\u897f\u5609\u5c9b"
            },
            "division": "metropolitan region",
            "parent": "FR",
            "lat": 42.0396042,
            "lng": 9.012892599999986
        },
        "HDF": {
            "name": "Hauts-de-France",
            "code": "HDF",
            "names": {
                "geonames": "Hauts-de-France",
                "en": "Hauts-de-France"
            },
            "division": null,
            "parent": null,
            "lat": null,
            "lng": null
        },
        "I": {
            "name": "Franche-Comt\u00e9",
            "code": "I",
            "division": "metropolitan region",
            "parent": "FR",
            "lat": 47.1343207,
            "lng": 6.022301599999992
        },
        "IDF": {
            "name": "\u00cele-de-France",
            "code": "IDF",
            "names": {
                "geonames": "Ile-de-France",
                "ru": "\u0418\u043b\u044c-\u0434\u0435-\u0424\u0440\u0430\u043d\u0441",
                "ar": "\u0625\u064a\u0644-\u062f\u0648-\u0641\u0631\u0627\u0646\u0633",
                "de": "\u00cele-de-France",
                "en": "\u00cele-de-France",
                "es": "Isla de Francia",
                "fr": "\u00cele-de-France",
                "it": "\u00cele-de-France",
                "zh": "\u6cd5\u5170\u897f\u5c9b"
            },
            "division": "metropolitan region",
            "parent": "FR",
            "lat": 48.8499198,
            "lng": 2.637041100000033
        },
        "K": {
            "name": "Languedoc-Roussillon",
            "code": "K",
            "division": "metropolitan region",
            "parent": "FR",
            "lat": 43.5912356,
            "lng": 3.258362600000055
        },
        "L": {
            "name": "Limousin",
            "code": "L",
            "division": "metropolitan region",
            "parent": "FR",
            "lat": 45.8932231,
            "lng": 1.5696017999999867
        },
        "M": {
            "name": "Lorraine",
            "code": "M",
            "division": "metropolitan region",
            "parent": "FR",
            "lat": 48.8744233,
            "lng": 6.2080932000000075
        },
        "MF": {
            "name": "Saint-Martin",
            "code": "MF",
            "division": "overseas territorial collectivity",
            "parent": "FR",
            "lat": 18.0406102,
            "lng": -63.098323300000004
        },
        "MQ": {
            "name": "Martinique",
            "code": "MQ",
            "division": "overseas region\/department",
            "parent": "FR",
            "lat": 14.6817939,
            "lng": -61.00056430000001
        },
        "N": {
            "name": "Midi-Pyr\u00e9n\u00e9es",
            "code": "N",
            "division": "metropolitan region",
            "parent": "FR",
            "lat": 44.0859426,
            "lng": 1.5208623999999418
        },
        "NAQ": {
            "name": "Nouvelle-Aquitaine",
            "code": "NAQ",
            "names": {
                "geonames": "Nouvelle-Aquitaine",
                "en": "Nouvelle-Aquitaine"
            },
            "division": null,
            "parent": null,
            "lat": null,
            "lng": null
        },
        "NC": {
            "name": "Nouvelle-Cal\u00e9donie",
            "code": "NC",
            "division": "overseas territorial collectivity",
            "parent": "FR",
            "lat": 35.7595731,
            "lng": -79.01929970000003
        },
        "NOR": {
            "name": "Normandie",
            "code": "NOR",
            "names": {
                "geonames": "Normandy",
                "en": "Normandie"
            },
            "division": null,
            "parent": null,
            "lat": null,
            "lng": null
        },
        "O": {
            "name": "Nord - Pas-de-Calais",
            "code": "O",
            "division": "metropolitan region",
            "parent": "FR",
            "lat": 50.4801153,
            "lng": 2.793726500000048
        },
        "OCC": {
            "name": "Occitanie",
            "code": "OCC",
            "names": {
                "geonames": "Occitanie",
                "en": "Occitanie"
            },
            "division": null,
            "parent": null,
            "lat": null,
            "lng": null
        },
        "P": {
            "name": "Basse-Normandie",
            "code": "P",
            "division": "metropolitan region",
            "parent": "FR",
            "lat": 48.8788472,
            "lng": -0.5157491999999593
        },
        "PF": {
            "name": "Polyn\u00e9sie fran\u00e7aise",
            "code": "PF",
            "division": "overseas territorial collectivity",
            "parent": "FR"
        },
        "PM": {
            "name": "Saint-Pierre-et-Miquelon",
            "code": "PM",
            "division": "overseas territorial collectivity",
            "parent": "FR"
        },
        "Q": {
            "name": "Haute-Normandie",
            "code": "Q",
            "division": "metropolitan region",
            "parent": "FR",
            "lat": 49.524641,
            "lng": 0.8828329000000394
        },
        "R": {
            "name": "Pays de la Loire",
            "code": "R",
            "names": {
                "geonames": "Pays de la Loire",
                "ru": "\u0417\u0435\u043c\u043b\u0438 \u041b\u0443\u0430\u0440\u044b",
                "ar": "\u0648\u0627\u062f\u064a \u0627\u0644\u0644\u0648\u0627\u0631",
                "de": "Pays de la Loire",
                "en": "Pays de la Loire",
                "es": "Pa\u00edses del Loira",
                "fr": "Pays de la Loire",
                "it": "Paesi della Loira",
                "zh": "\u5362\u74e6\u5c14\u6cb3\u5730\u533a"
            },
            "division": "metropolitan region",
            "parent": "FR",
            "lat": 47.7632836,
            "lng": -0.3299686999999949
        },
        "RE": {
            "name": "R\u00e9union",
            "code": "RE",
            "division": "overseas region\/department",
            "parent": "FR",
            "lat": -21.1921595,
            "lng": 55.68408610000006
        },
        "S": {
            "name": "Picardie",
            "code": "S",
            "division": "metropolitan region",
            "parent": "FR",
            "lat": 49.6636127,
            "lng": 2.5280731999999944
        },
        "T": {
            "name": "Poitou-Charentes",
            "code": "T",
            "division": "metropolitan region",
            "parent": "FR",
            "lat": 45.903552,
            "lng": -0.30918369999994866
        },
        "TF": {
            "name": "Terres australes fran\u00e7aises",
            "code": "TF",
            "division": "overseas territorial collectivity",
            "parent": "FR"
        },
        "U": {
            "name": "Provence-Alpes-C\u00f4te d'Azur",
            "code": "U",
            "names": {
                "geonames": "Provence-Alpes-Cote d'Azur",
                "ru": "\u041f\u0440\u043e\u0432\u0430\u043d\u0441",
                "ar": "\u0628\u0631\u0648\u0641\u0646\u0633 \u0623\u0644\u0628 \u0643\u0648\u062a \u062f\u0627\u0632\u0648\u0631",
                "de": "Provence-Alpes-C\u00f4te d\u2019Azur",
                "en": "Provence-Alpes-C\u00f4te d'Azur",
                "es": "Provenza-Alpes-Costa Azul",
                "fr": "Provence-Alpes-C\u00f4te d'Azur",
                "it": "Provenza-Alpi-Costa Azzurra",
                "zh": "\u666e\u7f57\u65fa\u65af-\u963f\u5c14\u5351\u65af-\u84dd\u8272\u6d77\u5cb8"
            },
            "division": "metropolitan region",
            "parent": "FR",
            "lat": 43.9351691,
            "lng": 6.067919399999937
        },
        "V": {
            "name": "Rh\u00f4ne-Alpes",
            "code": "V",
            "division": "metropolitan region",
            "parent": "FR",
            "lat": 45.1695797,
            "lng": 5.450282099999981
        },
        "WF": {
            "name": "Wallis-et-Futuna",
            "code": "WF",
            "division": "overseas territorial collectivity",
            "parent": "FR"
        },
        "YT": {
            "name": "Mayotte",
            "code": "YT",
            "division": "overseas territorial collectivity",
            "parent": "FR"
        },
        "10": {
            "name": "Aube",
            "code": "10",
            "division": "metropolitan department",
            "parent": "FR-G",
            "lat": 48.3860485,
            "lng": 4.5328931999999895
        },
        "11": {
            "name": "Aude",
            "code": "11",
            "division": "metropolitan department",
            "parent": "FR-K",
            "lat": 42.9266943,
            "lng": 2.6637302999999974
        },
        "12": {
            "name": "Aveyron",
            "code": "12",
            "division": "metropolitan department",
            "parent": "FR-N",
            "lat": 44.2330507,
            "lng": 2.0777713999999605
        },
        "13": {
            "name": "Bouches-du-Rh\u00f4ne",
            "code": "13",
            "division": "metropolitan department",
            "parent": "FR-U",
            "lat": 43.3190409,
            "lng": 5.408141099999966
        },
        "14": {
            "name": "Calvados",
            "code": "14",
            "division": "metropolitan department",
            "parent": "FR-P",
            "lat": 49.048347,
            "lng": 0.29387450000001536
        },
        "15": {
            "name": "Cantal",
            "code": "15",
            "division": "metropolitan department",
            "parent": "FR-C",
            "lat": 45.092,
            "lng": 2.6949999999999363
        },
        "16": {
            "name": "Charente",
            "code": "16",
            "division": "metropolitan department",
            "parent": "FR-T",
            "lat": 45.8784995,
            "lng": -0.21948699999995824
        },
        "17": {
            "name": "Charente-Maritime",
            "code": "17",
            "division": "metropolitan department",
            "parent": "FR-T",
            "lat": 45.9450336,
            "lng": -0.9756730999999945
        },
        "18": {
            "name": "Cher",
            "code": "18",
            "division": "metropolitan department",
            "parent": "FR-F",
            "lat": 47.3625586,
            "lng": 2.435289300000022
        },
        "19": {
            "name": "Corr\u00e8ze",
            "code": "19",
            "division": "metropolitan department",
            "parent": "FR-L",
            "lat": 45.3727271,
            "lng": 1.8743998999999576
        },
        "21": {
            "name": "C\u00f4te-d'Or",
            "code": "21",
            "division": "metropolitan department",
            "parent": "FR-D",
            "lat": 47.3331621,
            "lng": 5.036648300000024
        },
        "22": {
            "name": "C\u00f4tes-d'Armor",
            "code": "22",
            "division": "metropolitan department",
            "parent": "FR-E",
            "lat": 48.514444,
            "lng": -2.7645724999999857
        },
        "23": {
            "name": "Creuse",
            "code": "23",
            "division": "metropolitan department",
            "parent": "FR-L",
            "lat": 46.4543008,
            "lng": 1.372217399999954
        },
        "24": {
            "name": "Dordogne",
            "code": "24",
            "division": "metropolitan department",
            "parent": "FR-B",
            "lat": 45.2127838,
            "lng": 1.1055863999999929
        },
        "25": {
            "name": "Doubs",
            "code": "25",
            "division": "metropolitan department",
            "parent": "FR-I",
            "lat": 46.9279931,
            "lng": 6.351012200000014
        },
        "26": {
            "name": "Dr\u00f4me",
            "code": "26",
            "division": "metropolitan department",
            "parent": "FR-V",
            "lat": 44.6886762,
            "lng": 5.108340099999964
        },
        "27": {
            "name": "Eure",
            "code": "27",
            "division": "metropolitan department",
            "parent": "FR-Q",
            "lat": 48.8430839,
            "lng": 1.2237563999999566
        },
        "28": {
            "name": "Eure-et-Loir",
            "code": "28",
            "division": "metropolitan department",
            "parent": "FR-F",
            "lat": 47.9809764,
            "lng": 0.4473550999999816
        },
        "29": {
            "name": "Finist\u00e8re",
            "code": "29",
            "division": "metropolitan department",
            "parent": "FR-E",
            "lat": 48.0138932,
            "lng": -4.093416299999944
        },
        "30": {
            "name": "Gard",
            "code": "30",
            "division": "metropolitan department",
            "parent": "FR-K",
            "lat": 43.9377612,
            "lng": 4.376410699999951
        },
        "31": {
            "name": "Haute-Garonne",
            "code": "31",
            "division": "metropolitan department",
            "parent": "FR-N",
            "lat": 43.6073197,
            "lng": 1.4348182999999608
        },
        "32": {
            "name": "Gers",
            "code": "32",
            "division": "metropolitan department",
            "parent": "FR-N",
            "lat": 43.8376652,
            "lng": 0.6272682999999688
        },
        "33": {
            "name": "Gironde",
            "code": "33",
            "division": "metropolitan department",
            "parent": "FR-B",
            "lat": 44.5831865,
            "lng": -0.0876180000000204
        },
        "34": {
            "name": "H\u00e9rault",
            "code": "34",
            "division": "metropolitan department",
            "parent": "FR-K",
            "lat": 43.6789712,
            "lng": 3.5787345999999616
        },
        "35": {
            "name": "Ille-et-Vilaine",
            "code": "35",
            "division": "metropolitan department",
            "parent": "FR-E",
            "lat": 48.6584323,
            "lng": -1.9747492000000193
        },
        "36": {
            "name": "Indre",
            "code": "36",
            "division": "metropolitan department",
            "parent": "FR-F",
            "lat": 46.8664275,
            "lng": 1.1821922000000313
        },
        "37": {
            "name": "Indre-et-Loire",
            "code": "37",
            "division": "metropolitan department",
            "parent": "FR-F",
            "lat": 47.3936304,
            "lng": 0.6929135999999971
        },
        "38": {
            "name": "Is\u00e8re",
            "code": "38",
            "division": "metropolitan department",
            "parent": "FR-V",
            "lat": 45.3222482,
            "lng": 5.93138840000006
        },
        "39": {
            "name": "Jura",
            "code": "39",
            "division": "metropolitan department",
            "parent": "FR-I",
            "lat": 46.2725,
            "lng": 5.943611099999998
        },
        "40": {
            "name": "Landes",
            "code": "40",
            "division": "metropolitan department",
            "parent": "FR-B",
            "lat": 43.4923678,
            "lng": -0.3420443999999634
        },
        "41": {
            "name": "Loir-et-Cher",
            "code": "41",
            "division": "metropolitan department",
            "parent": "FR-F",
            "lat": 46.332772,
            "lng": 1.0363022000000228
        },
        "42": {
            "name": "Loire",
            "code": "42",
            "division": "metropolitan department",
            "parent": "FR-V",
            "lat": 46.332772,
            "lng": 1.0363022000000228
        },
        "43": {
            "name": "Haute-Loire",
            "code": "43",
            "division": "metropolitan department",
            "parent": "FR-C",
            "lat": 45.1412893,
            "lng": 4.126053700000057
        },
        "44": {
            "name": "Loire-Atlantique",
            "code": "44",
            "division": "metropolitan department",
            "parent": "FR-R",
            "lat": 47.157322,
            "lng": -1.602049500000021
        },
        "45": {
            "name": "Loiret",
            "code": "45",
            "division": "metropolitan department",
            "parent": "FR-F",
            "lat": 46.332772,
            "lng": 1.0363022000000228
        },
        "46": {
            "name": "Lot",
            "code": "46",
            "division": "metropolitan department",
            "parent": "FR-N",
            "lat": 44.4784347,
            "lng": 1.998425999999995
        },
        "47": {
            "name": "Lot-et-Garonne",
            "code": "47",
            "division": "metropolitan department",
            "parent": "FR-B",
            "lat": 44.1992392,
            "lng": 0.6145976999999903
        },
        "48": {
            "name": "Loz\u00e8re",
            "code": "48",
            "division": "metropolitan department",
            "parent": "FR-K",
            "lat": 44.4267329,
            "lng": 3.7348515999999563
        },
        "49": {
            "name": "Maine-et-Loire",
            "code": "49",
            "division": "metropolitan department",
            "parent": "FR-R",
            "lat": 47.5287207,
            "lng": -0.5278035999999702
        },
        "50": {
            "name": "Manche",
            "code": "50",
            "division": "metropolitan department",
            "parent": "FR-P",
            "lat": 49.6461259,
            "lng": -1.5769288000000188
        },
        "51": {
            "name": "Marne",
            "code": "51",
            "division": "metropolitan department",
            "parent": "FR-G",
            "lat": 48.5243033,
            "lng": 3.848915799999986
        },
        "52": {
            "name": "Haute-Marne",
            "code": "52",
            "division": "metropolitan department",
            "parent": "FR-G",
            "lat": 47.9996643,
            "lng": 5.499490499999979
        },
        "53": {
            "name": "Mayenne",
            "code": "53",
            "division": "metropolitan department",
            "parent": "FR-R",
            "lat": 48.304055,
            "lng": -0.6182876000000306
        },
        "54": {
            "name": "Meurthe-et-Moselle",
            "code": "54",
            "division": "metropolitan department",
            "parent": "FR-M",
            "lat": 48.693354,
            "lng": 6.184240000000045
        },
        "55": {
            "name": "Meuse",
            "code": "55",
            "division": "metropolitan department",
            "parent": "FR-M",
            "lat": 49.1152767,
            "lng": 5.178609800000004
        },
        "56": {
            "name": "Morbihan",
            "code": "56",
            "division": "metropolitan department",
            "parent": "FR-E",
            "lat": 47.6,
            "lng": -2.7999999999999545
        },
        "57": {
            "name": "Moselle",
            "code": "57",
            "division": "metropolitan department",
            "parent": "FR-M",
            "lat": 48.662006,
            "lng": 6.363126700000066
        },
        "58": {
            "name": "Ni\u00e8vre",
            "code": "58",
            "division": "metropolitan department",
            "parent": "FR-D",
            "lat": 47.0299932,
            "lng": 3.1859812000000147
        },
        "59": {
            "name": "Nord",
            "code": "59",
            "division": "metropolitan department",
            "parent": "FR-O",
            "lat": 43.3894358,
            "lng": 1.5118245999999544
        },
        "60": {
            "name": "Oise",
            "code": "60",
            "division": "metropolitan department",
            "parent": "FR-S",
            "lat": 49.4822734,
            "lng": 3.07176359999994
        },
        "61": {
            "name": "Orne",
            "code": "61",
            "division": "metropolitan department",
            "parent": "FR-P",
            "lat": 48.9970918,
            "lng": -0.24394299999994473
        },
        "62": {
            "name": "Pas-de-Calais",
            "code": "62",
            "division": "metropolitan department",
            "parent": "FR-O",
            "lat": 50.5732769,
            "lng": 2.324467899999945
        },
        "63": {
            "name": "Puy-de-D\u00f4me",
            "code": "63",
            "division": "metropolitan department",
            "parent": "FR-C",
            "lat": 45.7727975,
            "lng": 2.9642357000000175
        },
        "64": {
            "name": "Pyr\u00e9n\u00e9es-Atlantiques",
            "code": "64",
            "division": "metropolitan department",
            "parent": "FR-B",
            "lat": 43.2962345,
            "lng": -0.3689050000000407
        },
        "65": {
            "name": "Hautes-Pyr\u00e9n\u00e9es",
            "code": "65",
            "division": "metropolitan department",
            "parent": "FR-N",
            "lat": 43.2339517,
            "lng": 0.06802400000003672
        },
        "66": {
            "name": "Pyr\u00e9n\u00e9es-Orientales",
            "code": "66",
            "division": "metropolitan department",
            "parent": "FR-K",
            "lat": 42.5,
            "lng": 2.25
        },
        "67": {
            "name": "Bas-Rhin",
            "code": "67",
            "division": "metropolitan department",
            "parent": "FR-A",
            "lat": 48.5878311,
            "lng": 7.742039400000067
        },
        "68": {
            "name": "Haut-Rhin",
            "code": "68",
            "division": "metropolitan department",
            "parent": "FR-A",
            "lat": 48.0856581,
            "lng": 7.354363799999987
        },
        "69": {
            "name": "Rh\u00f4ne",
            "code": "69",
            "division": "metropolitan department",
            "parent": "FR-V",
            "lat": 44.7682581,
            "lng": 5.293587699999989
        },
        "70": {
            "name": "Haute-Sa\u00f4ne",
            "code": "70",
            "division": "metropolitan department",
            "parent": "FR-I",
            "lat": 47.6231945,
            "lng": 6.1532048999999915
        },
        "71": {
            "name": "Sa\u00f4ne-et-Loire",
            "code": "71",
            "division": "metropolitan department",
            "parent": "FR-D",
            "lat": 46.3066305,
            "lng": 4.835120800000027
        },
        "72": {
            "name": "Sarthe",
            "code": "72",
            "division": "metropolitan department",
            "parent": "FR-R",
            "lat": 48.0004525,
            "lng": -0.09428379999997105
        },
        "73": {
            "name": "Savoie",
            "code": "73",
            "division": "metropolitan department",
            "parent": "FR-V",
            "lat": 45.6894983,
            "lng": 5.915652899999941
        },
        "74": {
            "name": "Haute-Savoie",
            "code": "74",
            "division": "metropolitan department",
            "parent": "FR-V",
            "lat": 45.9310727,
            "lng": 6.106563000000051
        },
        "75": {
            "name": "Paris",
            "code": "75",
            "division": "metropolitan department",
            "parent": "FR-J",
            "lat": 48.8566667,
            "lng": 2.3509870999999976
        },
        "76": {
            "name": "Seine-Maritime",
            "code": "76",
            "division": "metropolitan department",
            "parent": "FR-Q",
            "lat": 49.5076924,
            "lng": 0.1735155000000077
        },
        "77": {
            "name": "Seine-et-Marne",
            "code": "77",
            "division": "metropolitan department",
            "parent": "FR-J",
            "lat": 48.5416871,
            "lng": 2.6555382999999892
        },
        "78": {
            "name": "Yvelines",
            "code": "78",
            "division": "metropolitan department",
            "parent": "FR-J",
            "lat": 48.6110857,
            "lng": 1.959183400000029
        },
        "79": {
            "name": "Deux-S\u00e8vres",
            "code": "79",
            "division": "metropolitan department",
            "parent": "FR-T",
            "lat": 46.3245526,
            "lng": -0.4653511000000208
        },
        "80": {
            "name": "Somme",
            "code": "80",
            "division": "metropolitan department",
            "parent": "FR-S",
            "lat": 49.9629476,
            "lng": 2.5233987999999954
        },
        "81": {
            "name": "Tarn",
            "code": "81",
            "division": "metropolitan department",
            "parent": "FR-N",
            "lat": 44.0759828,
            "lng": 2.4104343999999855
        },
        "82": {
            "name": "Tarn-et-Garonne",
            "code": "82",
            "division": "metropolitan department",
            "parent": "FR-N",
            "lat": 43.9456772,
            "lng": 0.4109052999999676
        },
        "83": {
            "name": "Var",
            "code": "83",
            "division": "metropolitan department",
            "parent": "FR-U",
            "lat": 43.1380124,
            "lng": 5.98380910000003
        },
        "84": {
            "name": "Vaucluse",
            "code": "84",
            "division": "metropolitan department",
            "parent": "FR-U",
            "lat": 47.7611889,
            "lng": 6.385853900000029
        },
        "85": {
            "name": "Vend\u00e9e",
            "code": "85",
            "division": "metropolitan department",
            "parent": "FR-R",
            "lat": 46.5063463,
            "lng": -0.6654229000000669
        },
        "86": {
            "name": "Vienne",
            "code": "86",
            "division": "metropolitan department",
            "parent": "FR-T",
            "lat": 46.4475531,
            "lng": 1.0516731000000163
        },
        "87": {
            "name": "Haute-Vienne",
            "code": "87",
            "division": "metropolitan department",
            "parent": "FR-L",
            "lat": 45.8323764,
            "lng": 1.2578191999999717
        },
        "88": {
            "name": "Vosges",
            "code": "88",
            "division": "metropolitan department",
            "parent": "FR-M",
            "lat": 48.5,
            "lng": 7.166666699999951
        },
        "89": {
            "name": "Yonne",
            "code": "89",
            "division": "metropolitan department",
            "parent": "FR-D",
            "lat": 47.7209766,
            "lng": 3.459813199999985
        },
        "90": {
            "name": "Territoire de Belfort",
            "code": "90",
            "division": "metropolitan department",
            "parent": "FR-I",
            "lat": 47.6385118,
            "lng": 6.86158219999993
        },
        "91": {
            "name": "Essonne",
            "code": "91",
            "division": "metropolitan department",
            "parent": "FR-J",
            "lat": 48.4396398,
            "lng": 2.4138931999999613
        },
        "92": {
            "name": "Hauts-de-Seine",
            "code": "92",
            "division": "metropolitan department",
            "parent": "FR-J",
            "lat": 48.8960211,
            "lng": 2.2156817000000046
        },
        "93": {
            "name": "Seine-Saint-Denis",
            "code": "93",
            "division": "metropolitan department",
            "parent": "FR-J",
            "lat": 48.9360802,
            "lng": 2.3648842999999715
        },
        "94": {
            "name": "Val-de-Marne",
            "code": "94",
            "division": "metropolitan department",
            "parent": "FR-J",
            "lat": 48.7705903,
            "lng": 2.525416199999995
        },
        "95": {
            "name": "Val d'Oise",
            "code": "95",
            "division": "metropolitan department",
            "parent": "FR-J",
            "lat": 49.0965563,
            "lng": 2.2057296000000406
        }
    }
}