{
    "alpha-2": "IE",
    "alpha-3": "IRL",
    "numeric": 372,
    "capital": "Dublin",
    "currency": "EUR",
    "languages": [
        "ga",
        "en"
    ],
    "flag-icon": "\ud83c\uddee\ud83c\uddea",
    "names": {
        "geonames": "Ireland",
        "en": "Republic of Ireland",
        "ar": "\u062c\u0645\u0647\u0648\u0631\u064a\u0629 \u0623\u064a\u0631\u0644\u0646\u062f\u0627",
        "de": "Irland",
        "es": "Irlanda",
        "fr": "Irlande",
        "it": "Irlanda",
        "ru": "\u0418\u0440\u043b\u0430\u043d\u0434\u0438\u044f",
        "zh": "\u7231\u5c14\u5170",
        "he": "\u05d0\u05d9\u05e8\u05dc\u05e0\u05d3",
        "hi": "\u0906\u092f\u0930\u0932\u0948\u0923\u094d\u0921 \u0917\u0923\u0930\u093e\u091c\u094d\u092f",
        "ja": "\u30a2\u30a4\u30eb\u30e9\u30f3\u30c9",
        "pt": "Rep\u00fablica da Irlanda"
    },
    "ISO3166-2": {
        "C": {
            "name": "Connacht",
            "code": "C",
            "names": {
                "geonames": "Connaught",
                "en": "Connacht",
                "ar": "\u0643\u0648\u0646\u0627\u0643\u062a",
                "de": "Connacht",
                "es": "Connacht",
                "fr": "Connacht",
                "it": "Connacht",
                "ru": "\u041a\u043e\u043d\u043d\u0430\u0445\u0442",
                "zh": "\u5eb7\u8afe\u7279\u7701"
            },
            "division": "county",
            "parent": "IE-M",
            "lat": 51.8978719,
            "lng": -8.471087399999988
        },
        "CE": {
            "name": "Clare",
            "code": "CE",
            "division": "county",
            "parent": "IE-M",
            "lat": 52.7844592,
            "lng": -9.080747599999995
        },
        "CN": {
            "name": "Cavan",
            "code": "CN",
            "division": "county",
            "parent": "IE-U",
            "lat": 53.9942097,
            "lng": -7.360895700000015
        },
        "CW": {
            "name": "Carlow",
            "code": "CW",
            "division": "county",
            "parent": "IE-L",
            "lat": 52.835975,
            "lng": -6.9245495999999775
        },
        "D": {
            "name": "Dublin",
            "code": "D",
            "division": "county",
            "parent": "IE-L",
            "lat": 53.344104,
            "lng": -6.267493699999932
        },
        "DL": {
            "name": "Donegal",
            "code": "DL",
            "division": "county",
            "parent": "IE-U",
            "lat": 54.654487,
            "lng": -8.110714099999996
        },
        "G": {
            "name": "Galway",
            "code": "G",
            "division": "county",
            "parent": "IE-C",
            "lat": 53.2737969,
            "lng": -9.051779899999929
        },
        "KE": {
            "name": "Kildare",
            "code": "KE",
            "division": "county",
            "parent": "IE-L",
            "lat": 53.1598293,
            "lng": -6.908997499999941
        },
        "KK": {
            "name": "Kilkenny",
            "code": "KK",
            "division": "county",
            "parent": "IE-L",
            "lat": 52.6537541,
            "lng": -7.247983299999987
        },
        "KY": {
            "name": "Kerry",
            "code": "KY",
            "division": "county",
            "parent": "IE-M",
            "lat": 52.1813736,
            "lng": -9.536761899999988
        },
        "L": {
            "name": "Leinster",
            "code": "L",
            "names": {
                "geonames": "Leinster",
                "en": "Leinster",
                "ar": "\u0644\u0627\u064a\u0646\u0633\u062a\u0631",
                "de": "Leinster",
                "es": "Leinster",
                "fr": "Leinster",
                "it": "Leinster",
                "ru": "\u041b\u0435\u043d\u0441\u0442\u0435\u0440",
                "zh": "\u502b\u65af\u7279\u7701"
            },
            "division": "province",
            "parent": "IE",
            "lat": 53.0136689,
            "lng": -6.976001999999994
        },
        "LD": {
            "name": "Longford",
            "code": "LD",
            "division": "county",
            "parent": "IE-L",
            "lat": 53.7258242,
            "lng": -7.798735099999931
        },
        "LH": {
            "name": "Louth",
            "code": "LH",
            "division": "county",
            "parent": "IE-L",
            "lat": 53.9523666,
            "lng": -6.539012599999978
        },
        "LK": {
            "name": "Limerick",
            "code": "LK",
            "division": "county",
            "parent": "IE-M",
            "lat": 52.6638571,
            "lng": -8.626772599999981
        },
        "LM": {
            "name": "Leitrim",
            "code": "LM",
            "division": "county",
            "parent": "IE-C",
            "lat": 53.9893255,
            "lng": -8.062922000000071
        },
        "LS": {
            "name": "Laois",
            "code": "LS",
            "division": "county",
            "parent": "IE-L",
            "lat": 53.0326359,
            "lng": -7.300586299999964
        },
        "M": {
            "name": "Munster",
            "code": "M",
            "names": {
                "geonames": "Munster",
                "en": "Munster",
                "ar": "\u0645\u0648\u0646\u0633\u062a\u0631",
                "de": "Munster",
                "es": "Munster",
                "fr": "Munster",
                "it": "Munster",
                "ru": "\u041c\u0430\u043d\u0441\u0442\u0435\u0440",
                "zh": "\u8292\u65af\u7279\u7701"
            },
            "division": "province",
            "parent": "IE",
            "lat": 52.2217725,
            "lng": -8.556663800000024
        },
        "MH": {
            "name": "Meath",
            "code": "MH",
            "division": "county",
            "parent": "IE-L",
            "lat": 53.4011687,
            "lng": -6.664395799999966
        },
        "MN": {
            "name": "Monaghan",
            "code": "MN",
            "division": "county",
            "parent": "IE-U",
            "lat": 54.2485304,
            "lng": -6.969159900000022
        },
        "MO": {
            "name": "Mayo",
            "code": "MO",
            "division": "county",
            "parent": "IE-C",
            "lat": 53.7600582,
            "lng": -9.117707099999961
        },
        "OY": {
            "name": "Offaly",
            "code": "OY",
            "division": "county",
            "parent": "IE-L",
            "lat": 53.2771489,
            "lng": -7.492387199999939
        },
        "RN": {
            "name": "Roscommon",
            "code": "RN",
            "division": "county",
            "parent": "IE-C",
            "lat": 53.6279798,
            "lng": -8.188634999999977
        },
        "SO": {
            "name": "Sligo",
            "code": "SO",
            "division": "county",
            "parent": "IE-C",
            "lat": 54.2706069,
            "lng": -8.471527899999955
        },
        "TA": {
            "name": "Tipperary",
            "code": "TA",
            "division": "county",
            "parent": "IE-M",
            "lat": 52.4748756,
            "lng": -8.157204099999944
        },
        "U": {
            "name": "Ulster",
            "code": "U",
            "names": {
                "geonames": "Ulster",
                "en": "Ulster",
                "ar": "\u0623\u0648\u0644\u0633\u062a\u0631",
                "de": "Provinz Ulster",
                "es": "\u00dalster",
                "fr": "Ulster",
                "it": "Ulster",
                "ru": "\u041e\u043b\u044c\u0441\u0442\u0435\u0440",
                "zh": "\u963f\u723e\u65af\u7279\u7701"
            },
            "division": "province",
            "parent": "IE",
            "lat": 54.7824296,
            "lng": -8.05066899999997
        },
        "WD": {
            "name": "Waterford",
            "code": "WD",
            "division": "county",
            "parent": "IE-M",
            "lat": 52.2567868,
            "lng": -7.129204399999935
        },
        "WH": {
            "name": "Westmeath",
            "code": "WH",
            "division": "county",
            "parent": "IE-L",
            "lat": 53.5346788,
            "lng": -7.349305400000048
        },
        "WW": {
            "name": "Wicklow",
            "code": "WW",
            "division": "county",
            "parent": "IE-L",
            "lat": 52.9792384,
            "lng": -6.042251699999952
        },
        "WX": {
            "name": "Wexford",
            "code": "WX",
            "division": "county",
            "parent": "IE-L",
            "lat": 52.3391609,
            "lng": -6.460124700000051
        }
    }
}