{
    "alpha-2": "LK",
    "alpha-3": "LKA",
    "numeric": 144,
    "capital": "Colombo",
    "currency": "LKR",
    "languages": [
        "si",
        "ta"
    ],
    "flag-icon": "\ud83c\uddf1\ud83c\uddf0",
    "names": {
        "geonames": "Sri Lanka",
        "en": "Sri Lanka",
        "ar": "\u0633\u0631\u064a\u0644\u0627\u0646\u0643\u0627",
        "de": "Sri Lanka",
        "es": "Sri Lanka",
        "fr": "Sri Lanka",
        "it": "Sri Lanka",
        "ru": "\u0428\u0440\u0438-\u041b\u0430\u043d\u043a\u0430",
        "zh": "\u65af\u91cc\u862d\u5361",
        "he": "\u05e1\u05e8\u05d9 \u05dc\u05e0\u05e7\u05d4",
        "hi": "\u0936\u094d\u0930\u0940\u0932\u0902\u0915\u093e",
        "ja": "\u30b9\u30ea\u30e9\u30f3\u30ab",
        "pt": "Sri Lanka"
    },
    "ISO3166-2": {
        "1": {
            "name": "Western Province, Sri Lanka",
            "code": "1",
            "names": {
                "geonames": "Western",
                "en": "Western Province",
                "de": "Westprovinz",
                "es": "Provincia del Oeste",
                "fr": "Province de l'Ouest",
                "it": "Provincia Occidentale",
                "ru": "\u0417\u0430\u043f\u0430\u0434\u043d\u0430\u044f \u043f\u0440\u043e\u0432\u0438\u043d\u0446\u0438\u044f",
                "zh": "\u897f\u90e8\u7701"
            },
            "division": "province",
            "parent": "LK",
            "lat": 7.1385877,
            "lng": 79.95265080000001
        },
        "8": {
            "name": "Uva Province",
            "code": "8",
            "names": {
                "geonames": "Uva",
                "ru": "\u0423\u0432\u0430",
                "en": "Uva Province",
                "de": "Uva",
                "es": "Provincia de Uva",
                "fr": "Province d'Uva",
                "it": "Uva",
                "zh": "\u70cf\u6c83\u7701"
            },
            "division": "province",
            "parent": "LK",
            "lat": null,
            "lng": null
        },
        "3": {
            "name": "Southern Province, Sri Lanka",
            "code": "3",
            "names": {
                "geonames": "Southern",
                "en": "Southern Province",
                "de": "S\u00fcdprovinz",
                "es": "Provincia Sur",
                "fr": "Province du Sud",
                "it": "Provincia Meridionale",
                "ru": "\u042e\u0436\u043d\u0430\u044f \u043f\u0440\u043e\u0432\u0438\u043d\u0446\u0438\u044f",
                "zh": ""
            },
            "division": "province",
            "parent": "LK",
            "lat": 5.9417605,
            "lng": 80.53328369999997
        },
        "9": {
            "name": "Sabaragamuwa Province",
            "code": "9",
            "names": {
                "geonames": "Sabaragamuwa",
                "ru": "\u0421\u0430\u0431\u0430\u0440\u0430\u0433\u0430\u043c\u0443\u0432\u0430",
                "en": "Sabaragamuwa Province",
                "de": "Sabaragamuwa",
                "es": "Sabaragamuwa",
                "fr": "Province de Sabaragamuwa",
                "it": "Sabaragamuwa",
                "zh": "\u85a9\u4f2f\u52d2\u683c\u7a46\u6c83\u7701"
            },
            "division": "province",
            "parent": "LK",
            "lat": null,
            "lng": null
        },
        "6": {
            "name": "North Western Province, Sri Lanka",
            "code": "6",
            "names": {
                "geonames": "North Western",
                "ru": "\u0421\u0435\u0432\u0435\u0440\u043e-\u0417\u0430\u043f\u0430\u0434\u043d\u0430\u044f \u043f\u0440\u043e\u0432\u0438\u043d\u0446\u0438\u044f",
                "en": "North Western Province",
                "de": "Nordwestprovinz",
                "es": "Provincia Noroeste",
                "fr": "Province du Nord-Ouest",
                "it": "Provincia Nord-Occidentale",
                "zh": "\u897f\u5317\u7701"
            },
            "division": null,
            "parent": null,
            "lat": null,
            "lng": null
        },
        "7": {
            "name": "North Central Province, Sri Lanka",
            "code": "7",
            "names": {
                "geonames": "North Central",
                "ru": "\u0421\u0435\u0432\u0435\u0440\u043e-\u0426\u0435\u043d\u0442\u0440\u0430\u043b\u044c\u043d\u0430\u044f \u043f\u0440\u043e\u0432\u0438\u043d\u0446\u0438\u044f",
                "en": "North Central Province",
                "de": "Nord-Zentralprovinz",
                "es": "Provincia Central del Norte",
                "fr": "Province du Centre-Nord",
                "it": "Provincia Centro-Settentrionale",
                "zh": "\u5317\u4e2d\u7701"
            },
            "division": "province",
            "parent": "LK",
            "lat": null,
            "lng": null
        },
        "2": {
            "name": "Central Province, Sri Lanka",
            "code": "2",
            "names": {
                "geonames": "Central",
                "en": "Central Province",
                "de": "Zentralprovinz",
                "es": "Provincia Central",
                "fr": "Province du Centre",
                "it": "Provincia Centrale",
                "ru": "\u0426\u0435\u043d\u0442\u0440\u0430\u043b\u044c\u043d\u0430\u044f \u043f\u0440\u043e\u0432\u0438\u043d\u0446\u0438\u044f",
                "zh": ""
            },
            "division": "province",
            "parent": "LK",
            "lat": 7.1534623,
            "lng": 80.62518060000002
        },
        "4": {
            "name": "Northern Province, Sri Lanka",
            "code": "4",
            "names": {
                "geonames": "Northern Province",
                "en": "Northern Province",
                "de": "Nordprovinz",
                "es": "Provincia Norte",
                "fr": "Province du Nord",
                "it": "Provincia Settentrionale",
                "ru": "\u0421\u0435\u0432\u0435\u0440\u043d\u0430\u044f \u043f\u0440\u043e\u0432\u0438\u043d\u0446\u0438\u044f",
                "zh": ""
            },
            "division": "province",
            "parent": "LK",
            "lat": 9.6610635,
            "lng": 80.01742960000001
        },
        "5": {
            "name": "Eastern Province, Sri Lanka",
            "code": "5",
            "names": {
                "geonames": "Eastern Province",
                "en": "Eastern Province",
                "de": "Ostprovinz",
                "es": "Provincia del Este",
                "fr": "Province de l'Est",
                "it": "Provincia Orientale",
                "ru": "\u0412\u043e\u0441\u0442\u043e\u0447\u043d\u0430\u044f \u043f\u0440\u043e\u0432\u0438\u043d\u0446\u0438\u044f",
                "zh": ""
            },
            "division": "province",
            "parent": "LK",
            "lat": 7.2895745,
            "lng": 81.6743553
        },
        "52": {
            "name": "Amp\u0101ara",
            "division": "district",
            "parent": "LK-5"
        },
        "71": {
            "name": "Anur\u0101dhapura",
            "division": "district",
            "parent": "LK-7",
            "lat": 8.314813,
            "lng": 80.41493200000002
        },
        "81": {
            "name": "Badulla",
            "division": "district",
            "parent": "LK-8",
            "lat": 6.9847222,
            "lng": 81.0563889
        },
        "51": {
            "name": "Ma\u1e0dakalapuva",
            "division": "district",
            "parent": "LK-5",
            "lat": 7.7166667,
            "lng": 81.70000000000005
        },
        "11": {
            "name": "K\u014f\u1e37amba",
            "division": "district",
            "parent": "LK-1",
            "lat": 6.927468,
            "lng": 79.84835799999996
        },
        "31": {
            "name": "G\u0101lla",
            "division": "district",
            "parent": "LK-3",
            "lat": 48.5744679,
            "lng": 13.250659300000052
        },
        "12": {
            "name": "Gampaha",
            "division": "district",
            "parent": "LK-1",
            "lat": 7.089895,
            "lng": 79.999413
        },
        "33": {
            "name": "Hambant\u014f\u1e6da",
            "division": "district",
            "parent": "LK-3",
            "lat": 6.123861,
            "lng": 81.12053700000001
        },
        "41": {
            "name": "Y\u0101panaya",
            "division": "district",
            "parent": "LK-4",
            "lat": 9.668333,
            "lng": 80.006393
        },
        "13": {
            "name": "Ka\u1e37utara",
            "division": "district",
            "parent": "LK-1",
            "lat": 6.579224,
            "lng": 79.96472900000003
        },
        "21": {
            "name": "Mahanuvara",
            "division": "district",
            "parent": "LK-2",
            "lat": 7.2969611,
            "lng": 80.63845279999998
        },
        "92": {
            "name": "K\u00e6galla",
            "division": "district",
            "parent": "LK-9"
        },
        "42": {
            "name": "Kilin\u014fchchi",
            "division": "district",
            "parent": "LK-4",
            "lat": 9.3833333,
            "lng": 80.39999999999998
        },
        "61": {
            "name": "Kuru\u1e47\u00e6gala",
            "division": "district",
            "parent": "LK"
        },
        "43": {
            "name": "Mann\u0101rama",
            "division": "district",
            "parent": "LK-4",
            "lat": 8.977572,
            "lng": 79.90933999999993
        },
        "22": {
            "name": "M\u0101tale",
            "division": "district",
            "parent": "LK-2",
            "lat": 7.467817,
            "lng": 80.62415299999998
        },
        "32": {
            "name": "M\u0101tara",
            "division": "district",
            "parent": "LK-3",
            "lat": 5.949305,
            "lng": 80.535347
        },
        "82": {
            "name": "M\u014f\u1e47ar\u0101gala",
            "division": "district",
            "parent": "LK-8",
            "lat": 6.8694032,
            "lng": 81.34544170000004
        },
        "45": {
            "name": "Mulativ",
            "division": "district",
            "parent": "LK-4",
            "lat": 9.2670911,
            "lng": 80.81424800000002
        },
        "23": {
            "name": "Nuvara \u0114liya",
            "division": "district",
            "parent": "LK-2",
            "lat": 6.8135562,
            "lng": 80.78272820000007
        },
        "72": {
            "name": "P\u014f\u1e37\u014fnnaruva",
            "division": "district",
            "parent": "LK-7",
            "lat": 7.932857,
            "lng": 81.00808699999993
        },
        "62": {
            "name": "Puttalama",
            "division": "district",
            "parent": "LK",
            "lat": 8.0341667,
            "lng": 79.83527779999997
        },
        "91": {
            "name": "Ratnapura",
            "division": "district",
            "parent": "LK-9",
            "lat": 6.693124,
            "lng": 80.386436
        },
        "53": {
            "name": "Triku\u1e47\u0101malaya",
            "division": "district",
            "parent": "LK-5",
            "lat": 8.569151,
            "lng": 81.23290999999995
        },
        "44": {
            "name": "Vavuniy\u0101va",
            "division": "district",
            "parent": "LK-4"
        }
    }
}